{"type": "FeatureCollection", "features": [{"type": "Feature", "properties": {"id": 1, "title": "Casa para alugar ", "price": "R$ 700", "address": "Rua Galo de Campina (Vl N S da Conceição), Passarinho, Recife, PE, 52170040", "url": "https://pe.olx.com.br/grande-recife/imoveis/casa-para-alugar-1371618444", "property_type": "Casas", "modifiedAt": "20/01/2025 12:27:08", "active": true}, "geometry": {"type": "Point", "coordinates": [-34.922180100000006, -7.9818033]}}, {"type": "Feature", "properties": {"id": 2, "title": "Quarto para alugar", "price": "R$ 650", "address": "2ª Travessa Desembargador Rodolfo Aureliano, Várzea, Recife, PE, 50810302", "url": "https://pe.olx.com.br/grande-recife/imoveis/quarto-para-alugar-1371616250", "property_type": "Aluguel de quartos", "modifiedAt": "20/01/2025 12:27:08", "active": true}, "geometry": {"type": "Point", "coordinates": [-34.968173300000004, -8.0450381]}}, {"type": "Feature", "properties": {"id": 3, "title": "Casa para venda em rua tranquila", "price": "R$ 700", "address": "Rua Galo de Campina (Vl N S da Conceição), Passarinho, Recife, PE, 52170040", "url": "https://pe.olx.com.br/grande-recife/imoveis/casa-para-venda-em-rua-tranquila-1371612756", "property_type": "Casas", "modifiedAt": "20/01/2025 12:27:08", "active": true}, "geometry": {"type": "Point", "coordinates": [-34.92118010000001, -7.9818033]}}, {"type": "Feature", "properties": {"id": 4, "title": "KITNET PARA ALUGAR EM FRENTE A UFPE", "price": "R$ 800", "address": "Avenida Professor Artur de Sá - lado ímpar, Cidade Universitária, Recife, PE, 50740525", "url": "https://pe.olx.com.br/grande-recife/imoveis/kitnet-para-alugar-em-frente-a-ufpe-1371586670", "property_type": "Casas", "modifiedAt": "20/01/2025 12:27:08", "active": true}, "geometry": {"type": "Point", "coordinates": [-34.9506183, -8.0544105]}}, {"type": "Feature", "properties": {"id": 5, "title": "Casa para alugar ", "price": "R$ 550", "address": "Rua Alexandria, Engenho do Meio, Recife, PE, 50730100", "url": "https://pe.olx.com.br/grande-recife/imoveis/casa-para-alugar-1371578648", "property_type": "Casas", "modifiedAt": "20/01/2025 12:27:08", "active": true}, "geometry": {"type": "Point", "coordinates": [-34.9411816, -8.0629303]}}, {"type": "Feature", "properties": {"id": 6, "title": "Aluga-se ", "price": "R$ 600", "address": "Rua Edgar Fonseca de Amorim, Iputinga, Recife, PE, 50690160", "url": "https://pe.olx.com.br/grande-recife/imoveis/aluga-se-1371410914", "property_type": "Casas", "modifiedAt": "20/01/2025 12:27:08", "active": true}, "geometry": {"type": "Point", "coordinates": [-34.9356451, -8.029981]}}, {"type": "Feature", "properties": {"id": 7, "title": "KITNET próximo a UFPE na PRAÇA DA VÁRZEA ", "price": "R$ 900", "address": "Rua Coronel Pacheco, Várzea, Recife, PE, 50741120", "url": "https://pe.olx.com.br/grande-recife/imoveis/kitnet-proximo-a-ufpe-na-praca-da-varzea-1371358538", "property_type": "Apartamentos", "modifiedAt": "20/01/2025 12:27:08", "active": true}, "geometry": {"type": "Point", "coordinates": [-34.9591187, -8.0486371]}}, {"type": "Feature", "properties": {"id": 8, "title": "Apartamento para alugar Camaragibe", "price": "R$ 800", "address": "Rua Artur Wanderley, Várzea, Recife, PE, 50740310", "url": "https://pe.olx.com.br/grande-recife/imoveis/apartamento-para-alugar-camaragibe-1371325286", "property_type": "Apartamentos", "modifiedAt": "20/01/2025 12:27:08", "active": true}, "geometry": {"type": "Point", "coordinates": [-34.948481, -8.0421525]}}, {"type": "Feature", "properties": {"id": 9, "title": "Casa na Torre", "price": "R$ 450", "address": "Rua Cantor Altemar Dutra, Torre, Recife, PE, 50620685", "url": "https://pe.olx.com.br/grande-recife/imoveis/casa-na-torre-1371281859", "property_type": "Casas", "modifiedAt": "20/01/2025 12:27:08", "active": true}, "geometry": {"type": "Point", "coordinates": [-34.8771169, -8.0196017]}}, {"type": "Feature", "properties": {"id": 10, "title": "Casa na VILA santa luzia no bairro da Torre", "price": "R$ 700", "address": "Rua Tapaua, Torre, Recife, PE, 50620705", "url": "https://pe.olx.com.br/grande-recife/imoveis/casa-na-vila-santa-luzia-no-bairro-da-torre-1371241459", "property_type": "Casas", "modifiedAt": "20/01/2025 12:27:08", "active": true}, "geometry": {"type": "Point", "coordinates": [-34.9114811, -8.0427093]}}, {"type": "Feature", "properties": {"id": 11, "title": "Casa para Alugar em ótima localização", "price": "R$ 900", "address": "Estrada do Caiara, Iputinga, Recife, PE, 50731360", "url": "https://pe.olx.com.br/grande-recife/imoveis/casa-para-alugar-em-otima-localizacao-1371208671", "property_type": "Casas", "modifiedAt": "20/01/2025 12:27:08", "active": true}, "geometry": {"type": "Point", "coordinates": [-34.9297041, -8.0420402]}}, {"type": "Feature", "properties": {"id": 12, "title": "Quarto individual para moças na Avenida Caxangá", "price": "R$ 630", "address": "Avenida Caxangá - de 4119 ao fim - lado ímpar, Várzea, Recife, PE, 50740000", "url": "https://pe.olx.com.br/grande-recife/imoveis/quarto-individual-para-mocas-na-avenida-caxanga-1371077808", "property_type": "Aluguel de quartos", "modifiedAt": "20/01/2025 12:27:08", "active": true}, "geometry": {"type": "Point", "coordinates": [-34.967173300000006, -8.0450381]}}, {"type": "Feature", "properties": {"id": 13, "title": "Apartamento 57m² na Várzea, com Compesa inclusa e Sem condomínio", "price": "R$ 950", "address": "Rua Senador Barros de Carvalho (Com Nova Morada), Caxangá, Recife, PE, 50980755", "url": "https://pe.olx.com.br/grande-recife/imoveis/apartamento-57m-na-varzea-com-compesa-inclusa-e-sem-condominio-1371053641", "property_type": "Apartamentos", "modifiedAt": "20/01/2025 12:27:09", "active": true}, "geometry": {"type": "Point", "coordinates": [-34.948151, -8.0303613]}}, {"type": "Feature", "properties": {"id": 14, "title": "Alugo esta casa no Engenho do Meio", "price": "R$ 600", "address": "Rua Cônego Luiz Gonzaga do Monte, Iputinga, Recife, PE, 50670620", "url": "https://pe.olx.com.br/grande-recife/imoveis/alugo-esta-casa-no-engenho-do-meio-1371022496", "property_type": "Aluguel de quartos", "modifiedAt": "20/01/2025 12:27:09", "active": true}, "geometry": {"type": "Point", "coordinates": [-34.9405195, -8.048802]}}, {"type": "Feature", "properties": {"id": 15, "title": "Kitnet localizado nos Torrões ", "price": "R$ 400", "address": "Rua Doutor Antônio Correia de Oliveira, Torrões, Recife, PE, 50761110", "url": "https://pe.olx.com.br/grande-recife/imoveis/kitnet-localizado-nos-torroes-1370823519", "property_type": "Casas", "modifiedAt": "20/01/2025 12:27:09", "active": true}, "geometry": {"type": "Point", "coordinates": [-34.9350457, -8.0618637]}}, {"type": "Feature", "properties": {"id": 16, "title": "Aluga-se um kitnet, com sala, um quarto, cozinha, banheiro e área de serviço na ur07 ", "price": "R$ 360", "address": "Rua Salema, Várzea, Recife, PE, 50960040", "url": "https://pe.olx.com.br/grande-recife/imoveis/aluga-se-um-kitnet-com-sala-um-quarto-cozinha-banheiro-e-area-de-servico-na-ur07-1370706153", "property_type": "Casas", "modifiedAt": "20/01/2025 12:27:09", "active": true}, "geometry": {"type": "Point", "coordinates": [-34.9773413, -8.0382035]}}, {"type": "Feature", "properties": {"id": 17, "title": "Alugo Kit Net perto da UPA da Caxangá ", "price": "R$ 500", "address": "Rua Água Clara, Várzea, Recife, PE, 50980160", "url": "https://pe.olx.com.br/grande-recife/imoveis/alugo-kit-net-perto-da-upa-da-caxanga-1370603756", "property_type": "Casas", "modifiedAt": "20/01/2025 12:27:09", "active": true}, "geometry": {"type": "Point", "coordinates": [-34.9632242, -8.0246368]}}, {"type": "Feature", "properties": {"id": 18, "title": "Aluga-se um kitnet semi-mobiliado  para estudante próx a UFPE", "price": "R$ 780", "address": "Rua das Palmeiras, Cidade Universitária, Recife, PE, 50740670", "url": "https://pe.olx.com.br/grande-recife/imoveis/aluga-se-um-kitnet-semi-mobiliado-para-estudante-prox-a-ufpe-1370602177", "property_type": "Casas", "modifiedAt": "20/01/2025 12:27:09", "active": true}, "geometry": {"type": "Point", "coordinates": [-34.9312478, -8.0059656]}}, {"type": "Feature", "properties": {"id": 19, "title": "Kitnet 10 minutos da UFPE ", "price": "R$ 800", "address": "Rua Nova Lusitânia, Várzea, Recife, PE, 50810340", "url": "https://pe.olx.com.br/grande-recife/imoveis/kitnet-10-minutos-da-ufpe-1370544486", "property_type": "Apartamentos", "modifiedAt": "20/01/2025 12:27:09", "active": true}, "geometry": {"type": "Point", "coordinates": [-34.9585914, -8.0401465]}}, {"type": "Feature", "properties": {"id": 20, "title": "Kitnet cidade universitária ", "price": "R$ 1.000", "address": "Rua Cassilândia, Várzea, Recife, PE, 50740370", "url": "https://pe.olx.com.br/grande-recife/imoveis/kitnet-cidade-universitaria-1370493265", "property_type": "Aluguel de quartos", "modifiedAt": "20/01/2025 12:27:09", "active": true}, "geometry": {"type": "Point", "coordinates": [-34.9495443, -8.0442312]}}, {"type": "Feature", "properties": {"id": 21, "title": "Alugo casa em aldeia! ", "price": "R$ 400", "address": "Rua Professor Teódulo Miranda, Iputinga, Recife, PE, 50721460", "url": "https://pe.olx.com.br/grande-recife/imoveis/alugo-casa-em-aldeia-1310750106", "property_type": "Casas", "modifiedAt": "20/01/2025 12:27:09", "active": true}, "geometry": {"type": "Point", "coordinates": [-34.9338287, -8.044252]}}, {"type": "Feature", "properties": {"id": 22, "title": "Aluguel de quartos ", "price": "R$ 700", "address": "Rua Gastão Vidigal, Várzea, Recife, PE, 50980360", "url": "https://pe.olx.com.br/grande-recife/imoveis/aluguel-de-quartos-1370336370", "property_type": "Aluguel de quartos", "modifiedAt": "20/01/2025 12:27:09", "active": true}, "geometry": {"type": "Point", "coordinates": [-34.9570492, -8.0301317]}}, {"type": "Feature", "properties": {"id": 23, "title": "Casa Padrão para alugar ", "price": "R$ 350", "address": "Rua Vereador Braz Batista, Passarinho, Recife, PE, 52390290", "url": "https://pe.olx.com.br/grande-recife/imoveis/casa-padrao-para-alugar-1370130677", "property_type": "Casas", "modifiedAt": "20/01/2025 12:27:09", "active": true}, "geometry": {"type": "Point", "coordinates": [-34.921399, -8.055802]}}, {"type": "Feature", "properties": {"id": 24, "title": "Casa à venda na R. Sorocaba, 9 - Cordeiro, Recife", "price": "R$ 900", "address": "Rua Sorocaba, Cordeiro, Recife, PE, 50721530", "url": "https://pe.olx.com.br/grande-recife/imoveis/casa-a-venda-na-r-sorocaba-9-cordeiro-recife-1369887103", "property_type": "Casas", "modifiedAt": "20/01/2025 12:27:09", "active": true}, "geometry": {"type": "Point", "coordinates": [-34.9361836, -8.0518979]}}, {"type": "Feature", "properties": {"id": 25, "title": "Quartos vagos em AP na Torre", "price": "R$ 980", "address": "Rua Dom Manoel da Costa - até 529 - lado ímpar, Madalena, Recife, PE, 50710395", "url": "https://pe.olx.com.br/grande-recife/imoveis/quartos-vagos-em-ap-na-torre-1369686074", "property_type": "Aluguel de quartos", "modifiedAt": "20/01/2025 12:27:09", "active": true}, "geometry": {"type": "Point", "coordinates": [-34.907368600000005, -8.0537581]}}, {"type": "Feature", "properties": {"id": 26, "title": "Alugo kitnet na torre, encruzilhada e prado 500 tudo incluso fone: */ *", "price": "R$ 500", "address": "Rua Diogo Álvares - lado par, Torre, Recife, PE, 50710215", "url": "https://pe.olx.com.br/grande-recife/imoveis/alugo-kitnet-na-torre-encruzilhada-e-prado-500-tudo-incluso-fone-1369664870", "property_type": "Apartamentos", "modifiedAt": "20/01/2025 12:27:09", "active": true}, "geometry": {"type": "Point", "coordinates": [-34.906463800000004, -8.0425107]}}, {"type": "Feature", "properties": {"id": 27, "title": "Alugo casa próximo q UFPE na VÁRZEA", "price": "R$ 950", "address": "Rua Desembargador Rodolfo Aureliano, Várzea, Recife, PE, 50810300", "url": "https://pe.olx.com.br/grande-recife/imoveis/alugo-casa-proximo-q-ufpe-na-varzea-1369660353", "property_type": "Casas", "modifiedAt": "20/01/2025 12:27:09", "active": true}, "geometry": {"type": "Point", "coordinates": [-34.9598136, -8.0421536]}}, {"type": "Feature", "properties": {"id": 28, "title": "? APARTAMENTO *MOBILIADO*  1 quarto PARA ALUGAR  na cidade universitária ", "price": "R$ 900", "address": "Rua Padre Champagnat, Várzea, Recife, PE, 50740320", "url": "https://pe.olx.com.br/grande-recife/imoveis/apartamento-mobiliado-1-quarto-para-alugar-na-cidade-universitaria-1369593005", "property_type": "Apartamentos", "modifiedAt": "20/01/2025 12:27:09", "active": true}, "geometry": {"type": "Point", "coordinates": [-34.9477807, -8.0423004]}}, {"type": "Feature", "properties": {"id": 29, "title": "KITINETE * EM FRENTE  ao CFCH * UFPE  **** APT com 2 quartos próximo do HC UFPE", "price": "R$ 850", "address": "Avenida Professor Artur de Sá - lado par, Várzea, Recife, PE, 50740535", "url": "https://pe.olx.com.br/grande-recife/imoveis/kitinete-em-frente-ao-cfch-ufpe--apt-com-2-quartos-proximo-do-hc-ufpe-1150440635", "property_type": "Aluguel de quartos", "modifiedAt": "20/01/2025 12:27:09", "active": true}, "geometry": {"type": "Point", "coordinates": [-34.96617330000001, -8.0450381]}}, {"type": "Feature", "properties": {"id": 30, "title": "Casa em Nova Morada - 3 Quartos - Aluguel R$ 650,00", "price": "R$ 700", "address": "Rua Joana de Oliveira (Com Nova Morada), Caxangá, Recife, PE, 50980806", "url": "https://pe.olx.com.br/grande-recife/imoveis/casa-em-nova-morada-3-quartos-aluguel-r-650-00-1369532895", "property_type": "Casas", "modifiedAt": "20/01/2025 12:27:09", "active": true}, "geometry": {"type": "Point", "coordinates": [-34.947151000000005, -8.0303613]}}, {"type": "Feature", "properties": {"id": 31, "title": "Procurando casa para alugar", "price": "R$ 400", "address": "Rua Cantora Clara Nunes, Torre, Recife, PE, 50711550", "url": "https://pe.olx.com.br/grande-recife/imoveis/procurando-casa-para-alugar-1369528854", "property_type": "Casas", "modifiedAt": "20/01/2025 12:27:09", "active": true}, "geometry": {"type": "Point", "coordinates": [-34.9150229, -8.0445286]}}, {"type": "Feature", "properties": {"id": 32, "title": "Kitnets para alugar ", "price": "R$ 350", "address": "Rua Canário (Vl N S da Conceição), Passarinho, Recife, PE, 52170110", "url": "https://pe.olx.com.br/grande-recife/imoveis/kitnets-para-alugar-1369520057", "property_type": "Casas", "modifiedAt": "20/01/2025 12:27:09", "active": true}, "geometry": {"type": "Point", "coordinates": [-34.92018010000001, -7.9818033]}}, {"type": "Feature", "properties": {"id": 33, "title": "ALUGA-SE QUARTO INDIVIDUAL PARA MULHER", "price": "R$ 650", "address": "Rua Ildefonso Araújo do Rego, Várzea, Recife, PE, 50810210", "url": "https://pe.olx.com.br/grande-recife/imoveis/aluga-se-quarto-individual-para-mulher-1369395610", "property_type": "Aluguel de quartos", "modifiedAt": "20/01/2025 12:27:09", "active": true}, "geometry": {"type": "Point", "coordinates": [-34.9567777, -8.041735]}}, {"type": "Feature", "properties": {"id": 34, "title": "Apartamento aluga se na várzea ", "price": "R$ 800", "address": "Rua Mário Campelo, Várzea, Recife, PE, 50741430", "url": "https://pe.olx.com.br/grande-recife/imoveis/apartamento-aluga-se-na-varzea-1369255342", "property_type": "Apartamentos", "modifiedAt": "20/01/2025 12:27:09", "active": true}, "geometry": {"type": "Point", "coordinates": [-34.957931900000005, -8.0562238]}}, {"type": "Feature", "properties": {"id": 35, "title": "Chalé Piscina Privativa - Tamandaré", "price": "R$ 1.000", "address": "Rua Professor Chaves Batista, Várzea, Recife, PE, 50740030", "url": "https://pe.olx.com.br/grande-recife/imoveis/chale-piscina-privativa-tamandare-1367268284", "property_type": "Casas", "modifiedAt": "20/01/2025 12:27:09", "active": true}, "geometry": {"type": "Point", "coordinates": [-34.9446753, -8.0382449]}}, {"type": "Feature", "properties": {"id": 36, "title": "Flat em gravata", "price": "R$ 200", "address": "Rua Dias D'Avila, Várzea, Recife, PE, 50980330", "url": "https://pe.olx.com.br/grande-recife/imoveis/flat-em-gravata-1369089180", "property_type": "Aluguel de quartos", "modifiedAt": "20/01/2025 12:27:09", "active": true}, "geometry": {"type": "Point", "coordinates": [-34.9593785, -8.0338123]}}, {"type": "Feature", "properties": {"id": 37, "title": "Quarto disponivel em apartamento próximo a UFPE!", "price": "R$ 660", "address": "Rua Coronel Djalma Leite, Várzea, Recife, PE, 50740490", "url": "https://pe.olx.com.br/grande-recife/imoveis/quarto-disponivel-em-apartamento-proximo-a-ufpe-1369034674", "property_type": "Apartamentos", "modifiedAt": "20/01/2025 12:27:09", "active": true}, "geometry": {"type": "Point", "coordinates": [-34.9455311, -8.0441385]}}, {"type": "Feature", "properties": {"id": 38, "title": "Quarto para solteiros.", "price": "R$ 400", "address": "Rua Três de Maio, Várzea, Recife, PE, 50741020", "url": "https://pe.olx.com.br/grande-recife/imoveis/quarto-para-solteiros-1368996325", "property_type": "Aluguel de quartos", "modifiedAt": "20/01/2025 12:27:09", "active": true}, "geometry": {"type": "Point", "coordinates": [-34.9604689, -8.0468433]}}, {"type": "Feature", "properties": {"id": 39, "title": "Kitnet: 40m², dormitório, sala, cozinha, bem próximo da UFPE na Iputinga!", "price": "R$ 900", "address": "Rua Cônego Luiz Gonzaga do Monte, Iputinga, Recife, PE, 50670620", "url": "https://pe.olx.com.br/grande-recife/imoveis/kitnet-40m-dormitorio-sala-cozinha-bem-proximo-da-ufpe-na-iputinga-1368950752", "property_type": "Apartamentos", "modifiedAt": "20/01/2025 12:27:09", "active": true}, "geometry": {"type": "Point", "coordinates": [-34.9395195, -8.048802]}}, {"type": "Feature", "properties": {"id": 40, "title": "Casa UR7 Varzea", "price": "R$ 450", "address": "Rua Leopoldo Bulhões, Várzea, Recife, PE, 50980260", "url": "https://pe.olx.com.br/grande-recife/imoveis/casa-ur7-varzea-1368888427", "property_type": "Casas", "modifiedAt": "20/01/2025 12:27:09", "active": true}, "geometry": {"type": "Point", "coordinates": [-34.9615739, -8.03637]}}, {"type": "Feature", "properties": {"id": 41, "title": "Quarto para Alugar - Próximo à Universidade Federal de Pernambuco", "price": "R$ 400", "address": "Rua Gaspar Perez, Iputinga, Recife, PE, 50670350", "url": "https://pe.olx.com.br/grande-recife/imoveis/quarto-para-alugar-proximo-a-universidade-federal-de-pernambuco-1368710377", "property_type": "Aluguel de quartos", "modifiedAt": "20/01/2025 12:27:09", "active": true}, "geometry": {"type": "Point", "coordinates": [-34.9429101, -8.0473952]}}, {"type": "Feature", "properties": {"id": 42, "title": "Kitnet/ kitnete", "price": "R$ 650", "address": "Rua Marechal Manoel Luís Osório, Várzea, Recife, PE, 50740450", "url": "https://pe.olx.com.br/grande-recife/imoveis/kitnet-kitnete-1368583881", "property_type": "Casas", "modifiedAt": "20/01/2025 12:27:09", "active": true}, "geometry": {"type": "Point", "coordinates": [-34.9446807, -8.041505]}}, {"type": "Feature", "properties": {"id": 43, "title": "Aluga-se casa dúplex no bairro da várzea.", "price": "R$ 1.000", "address": "Rua Elpídio Branco, Várzea, Recife, PE, 50740250", "url": "https://pe.olx.com.br/grande-recife/imoveis/aluga-se-casa-duplex-no-bairro-da-varzea-1368474137", "property_type": "Casas", "modifiedAt": "20/01/2025 12:27:09", "active": true}, "geometry": {"type": "Point", "coordinates": [-34.9491129, -8.0403065]}}, {"type": "Feature", "properties": {"id": 44, "title": "Kitnet próximo UFPE ", "price": "R$ 1.000", "address": "Avenida Professor Artur de Sá - lado ímpar, Cidade Universitária, Recife, PE, 50740525", "url": "https://pe.olx.com.br/grande-recife/imoveis/kitnet-proximo-ufpe-1368329560", "property_type": "Apartamentos", "modifiedAt": "20/01/2025 12:27:09", "active": true}, "geometry": {"type": "Point", "coordinates": [-34.949618300000004, -8.0544105]}}, {"type": "Feature", "properties": {"id": 45, "title": "Alugam-se kit nets em Recife-PE", "price": "R$ 300", "address": "Rua Quatro de Outubro - de 129/130 ao fim, Prado, Recife, PE, 50720752", "url": "https://pe.olx.com.br/grande-recife/imoveis/alugam-se-kit-nets-em-recife-pe-1368255714", "property_type": "Apartamentos", "modifiedAt": "20/01/2025 12:27:09", "active": true}, "geometry": {"type": "Point", "coordinates": [-34.9139126, -8.0598858]}}, {"type": "Feature", "properties": {"id": 46, "title": "Casa ", "price": "R$ 500", "address": "Rua Borges da Fonseca, Iputinga, Recife, PE, 50670550", "url": "https://pe.olx.com.br/grande-recife/imoveis/casa-1370407550", "property_type": "Casas", "modifiedAt": "20/01/2025 12:27:09", "active": true}, "geometry": {"type": "Point", "coordinates": [-34.9429345, -8.0478533]}}, {"type": "Feature", "properties": {"id": 47, "title": "Aluga-se uma casa ", "price": "R$ 600", "address": "Rua Caminho da Areinha, Várzea, Recife, PE, 50980010", "url": "https://pe.olx.com.br/grande-recife/imoveis/aluga-se-uma-casa-1368024607", "property_type": "Casas", "modifiedAt": "20/01/2025 12:27:09", "active": true}, "geometry": {"type": "Point", "coordinates": [-34.9655986, -8.022168]}}, {"type": "Feature", "properties": {"id": 48, "title": "Republica para estudante em frente UFPE ao lado da reitoria", "price": "R$ 500", "address": "Rua Pantaleão Cirne, Engenho do Meio, Recife, PE, 50730330", "url": "https://pe.olx.com.br/grande-recife/imoveis/republica-para-estudante-em-frente-ufpe-ao-lado-da-reitoria-1368022454", "property_type": "Aluguel de quartos", "modifiedAt": "20/01/2025 12:27:09", "active": true}, "geometry": {"type": "Point", "coordinates": [-34.9455465, -8.054157]}}, {"type": "Feature", "properties": {"id": 49, "title": "Kitnet ao lado da UFPE ", "price": "R$ 600", "address": "1ª Travessa Visconde de Barbacena, Várzea, Recife, PE, 50740441", "url": "https://pe.olx.com.br/grande-recife/imoveis/kitnet-ao-lado-da-ufpe-1338272095", "property_type": "Apartamentos", "modifiedAt": "20/01/2025 12:27:09", "active": true}, "geometry": {"type": "Point", "coordinates": [-34.96517330000001, -8.0450381]}}, {"type": "Feature", "properties": {"id": 50, "title": "Kitnet a 3 min da UFPE (SÓ P ESTUDANTE)", "price": "R$ 500", "address": "Rua Seis de Março, Várzea, Recife, PE, 50741180", "url": "https://pe.olx.com.br/grande-recife/imoveis/kitnet-a-3-min-da-ufpe-so-p-estudante-1367932855", "property_type": "Casas", "modifiedAt": "20/01/2025 12:27:09", "active": true}, "geometry": {"type": "Point", "coordinates": [-34.958512, -8.0467781]}}, {"type": "Feature", "properties": {"id": 51, "title": "Casa para alugar em Bezerros/Serra negra.", "price": "R$ 400", "address": "Rua Francisco Bezerra Monteiro, Engenho do Meio, Recife, PE, 50730250", "url": "https://pe.olx.com.br/grande-recife/imoveis/casa-para-alugar-em-bezerros-serra-negra-1367897728", "property_type": "Casas", "modifiedAt": "20/01/2025 12:27:09", "active": true}, "geometry": {"type": "Point", "coordinates": [-34.9427898, -8.0546028]}}, {"type": "Feature", "properties": {"id": 52, "title": "Alugase casa em nova morada caxanga ", "price": "R$ 800", "address": "Rua Governador Moura Cavalcanti (Com Nova Morada), Caxangá, Recife, PE, 50980800", "url": "https://pe.olx.com.br/grande-recife/imoveis/alugase-casa-em-nova-morada-caxanga-1367728705", "property_type": "Casas", "modifiedAt": "20/01/2025 12:27:09", "active": true}, "geometry": {"type": "Point", "coordinates": [-34.94615100000001, -8.0303613]}}, {"type": "Feature", "properties": {"id": 53, "title": "Kitnet para alugar ", "price": "R$ 680", "address": "Rua Souza Bandeira - de 274 ao fim - lado par, Torre, Recife, PE, 50711525", "url": "https://pe.olx.com.br/grande-recife/imoveis/kitnet-para-alugar-1367505758", "property_type": "Aluguel de quartos", "modifiedAt": "20/01/2025 12:27:10", "active": true}, "geometry": {"type": "Point", "coordinates": [-34.90546380000001, -8.0425107]}}, {"type": "Feature", "properties": {"id": 54, "title": "ALUGO KITNET NO CORDEIRO", "price": "R$ 600", "address": "Avenida General San Martin - até 659/660, Cordeiro, Recife, PE, 50630060", "url": "https://pe.olx.com.br/grande-recife/imoveis/alugo-kitnet-no-cordeiro-1367425813", "property_type": "Apartamentos", "modifiedAt": "20/01/2025 12:27:10", "active": true}, "geometry": {"type": "Point", "coordinates": [-34.927542, -8.0511193]}}, {"type": "Feature", "properties": {"id": 55, "title": "Linda casa na iputinga ", "price": "R$ 650", "address": "Rua Fernando Aércio Granjeiro de Souza, Iputinga, Recife, PE, 50690430", "url": "https://pe.olx.com.br/grande-recife/imoveis/linda-casa-na-iputinga-1367091355", "property_type": "Casas", "modifiedAt": "20/01/2025 12:27:10", "active": true}, "geometry": {"type": "Point", "coordinates": [-34.936345800000005, -8.0398236]}}, {"type": "Feature", "properties": {"id": 56, "title": "ALUGUEL QUARTO PARA SEXO FEMININO", "price": "R$ 800", "address": "Rua José Bonifácio - de 436/437 ao fim, Torre, Recife, PE, 50710001", "url": "https://pe.olx.com.br/grande-recife/imoveis/aluguel-quarto-para-sexo-feminino-1369053705", "property_type": "Aluguel de quartos", "modifiedAt": "20/01/2025 12:27:10", "active": true}, "geometry": {"type": "Point", "coordinates": [-34.90446380000001, -8.0425107]}}, {"type": "Feature", "properties": {"id": 57, "title": "Torre", "price": "R$ 650", "address": "Rua Souza Bandeira - de 274 ao fim - lado par, Torre, Recife, PE, 50711525", "url": "https://pe.olx.com.br/grande-recife/imoveis/torre-1366767094", "property_type": "Casas", "modifiedAt": "20/01/2025 12:27:10", "active": true}, "geometry": {"type": "Point", "coordinates": [-34.90346380000001, -8.0425107]}}, {"type": "Feature", "properties": {"id": 58, "title": "UFPE - Kitnet, Apartamento, Quarto - UFRPE", "price": "R$ 0", "address": "Rua Antônio da Silva, Engenho do Meio, Recife, PE, 50730320", "url": "https://pe.olx.com.br/grande-recife/imoveis/ufpe-kitnet-apartamento-quarto-ufrpe-1360035880", "property_type": "Apartamentos", "modifiedAt": "20/01/2025 12:27:10", "active": true}, "geometry": {"type": "Point", "coordinates": [-34.9450369, -8.0543245]}}, {"type": "Feature", "properties": {"id": 59, "title": "QUARTO PARA ALUGAR", "price": "R$ 550", "address": "Rua Osvaldo Guimarães, Iputinga, Recife, PE, 50670330", "url": "https://pe.olx.com.br/grande-recife/imoveis/quarto-para-alugar-1366476434", "property_type": "Aluguel de quartos", "modifiedAt": "20/01/2025 12:27:10", "active": true}, "geometry": {"type": "Point", "coordinates": [-34.9413132, -8.0438262]}}, {"type": "Feature", "properties": {"id": 60, "title": "Apartamento para aluguel, 2 quartos, Varzea - Recife/PE", "price": "R$ 900", "address": "Rua Gastão Vidigal, Várzea, Recife, PE, 50980360", "url": "https://pe.olx.com.br/grande-recife/imoveis/apartamento-para-aluguel-2-quartos-varzea-recife-pe-1366383362", "property_type": "Apartamentos", "modifiedAt": "20/01/2025 12:27:10", "active": true}, "geometry": {"type": "Point", "coordinates": [-34.9560492, -8.0301317]}}, {"type": "Feature", "properties": {"id": 61, "title": "Alugo kitnet em frente à UFPE", "price": "R$ 700", "address": "Avenida Professor Artur de Sá - lado ímpar, Cidade Universitária, Recife, PE, 50740525", "url": "https://pe.olx.com.br/grande-recife/imoveis/alugo-kitnet-em-frente-a-ufpe-1366330614", "property_type": "Casas", "modifiedAt": "20/01/2025 12:27:10", "active": true}, "geometry": {"type": "Point", "coordinates": [-34.94861830000001, -8.0544105]}}, {"type": "Feature", "properties": {"id": 62, "title": "Alugo apartamento,  na rua Primeiro de Maio,  53, Várzea  ", "price": "R$ 1.000", "address": "Rua Primeiro de Maio, Várzea, Recife, PE, 50810180", "url": "https://pe.olx.com.br/grande-recife/imoveis/alugo-apartamento-na-rua-primeiro-de-maio-53-varzea-1366323715", "property_type": "Apartamentos", "modifiedAt": "20/01/2025 12:27:10", "active": true}, "geometry": {"type": "Point", "coordinates": [-34.9558997, -8.0411796]}}, {"type": "Feature", "properties": {"id": 63, "title": "Aluga-se Kitnet no Cordeiro ", "price": "R$ 700", "address": "Avenida General San Martin - até 659/660, Cordeiro, Recife, PE, 50630060", "url": "https://pe.olx.com.br/grande-recife/imoveis/aluga-se-kitnet-no-cordeiro-1366318606", "property_type": "Apartamentos", "modifiedAt": "20/01/2025 12:27:10", "active": true}, "geometry": {"type": "Point", "coordinates": [-34.926542000000005, -8.0511193]}}, {"type": "Feature", "properties": {"id": 64, "title": "Casa Ponta de Serrambi 5 Quartos", "price": "R$ 1.000", "address": "Rua Pessoa de Melo, Madalena, Recife, PE, 50610220", "url": "https://pe.olx.com.br/grande-recife/imoveis/casa-ponta-de-serrambi-5-quartos-1322649810", "property_type": "Casas", "modifiedAt": "20/01/2025 12:27:10", "active": true}, "geometry": {"type": "Point", "coordinates": [-34.9074242, -8.050224]}}, {"type": "Feature", "properties": {"id": 65, "title": "Kitnet para Alugar - Residencial Maria Amelia", "price": "R$ 700", "address": "Rua Gastão Vidigal, Várzea, Recife, PE, 50980360", "url": "https://pe.olx.com.br/grande-recife/imoveis/kitnet-para-alugar-residencial-maria-amelia-1365381380", "property_type": "Apartamentos", "modifiedAt": "20/01/2025 12:27:10", "active": true}, "geometry": {"type": "Point", "coordinates": [-34.955049200000005, -8.0301317]}}, {"type": "Feature", "properties": {"id": 66, "title": "Espaço para Aluguel.", "price": "R$ 500", "address": "Rua Carreiro, Iputinga, Recife, PE, 50680700", "url": "https://pe.olx.com.br/grande-recife/imoveis/espaco-para-aluguel-1365344868", "property_type": "Aluguel de quartos", "modifiedAt": "20/01/2025 12:27:10", "active": true}, "geometry": {"type": "Point", "coordinates": [-34.8966657, -8.0555429]}}, {"type": "Feature", "properties": {"id": 67, "title": "Alugo Quarto próximo a UFPE", "price": "R$ 600", "address": "Rua Almir Azevedo, Várzea, Recife, PE, 50740610", "url": "https://pe.olx.com.br/grande-recife/imoveis/alugo-quarto-proximo-a-ufpe-1365223086", "property_type": "Apartamentos", "modifiedAt": "20/01/2025 12:27:10", "active": true}, "geometry": {"type": "Point", "coordinates": [-34.9439161, -8.0406444]}}, {"type": "Feature", "properties": {"id": 68, "title": "Apartamento kitnete UFPE", "price": "R$ 700", "address": "Rua João Tavares, Várzea, Recife, PE, 50741320", "url": "https://pe.olx.com.br/grande-recife/imoveis/apartamento-kitnete-ufpe-1366671015", "property_type": "Apartamentos", "modifiedAt": "20/01/2025 12:27:10", "active": true}, "geometry": {"type": "Point", "coordinates": [-34.9566554, -8.0526895]}}, {"type": "Feature", "properties": {"id": 69, "title": "DIVIDI CASA", "price": "R$ 400", "address": "Rua Oito de Fevereiro, Torrões, Recife, PE, 50660270", "url": "https://pe.olx.com.br/grande-recife/imoveis/dividi-casa-1366642853", "property_type": "Casas", "modifiedAt": "20/01/2025 12:27:10", "active": true}, "geometry": {"type": "Point", "coordinates": [-34.9402758, -8.0601644]}}, {"type": "Feature", "properties": {"id": 70, "title": "Kitnet ao lado da UFPE ", "price": "R$ 550", "address": "1ª Travessa Visconde de Barbacena, Várzea, Recife, PE, 50740441", "url": "https://pe.olx.com.br/grande-recife/imoveis/kitnet-ao-lado-da-ufpe-1365048733", "property_type": "Apartamentos", "modifiedAt": "20/01/2025 12:27:10", "active": true}, "geometry": {"type": "Point", "coordinates": [-34.96417330000001, -8.0450381]}}, {"type": "Feature", "properties": {"id": 71, "title": "RESIDÊNCIA ESTUDANTIL - 300 metros da UFPE", "price": "R$ 550", "address": "Rua Francisco Correia de Araújo, Várzea, Recife, PE, 50740430", "url": "https://pe.olx.com.br/grande-recife/imoveis/residencia-estudantil-300-metros-da-ufpe-1269278156", "property_type": "Aluguel de quartos", "modifiedAt": "20/01/2025 12:27:10", "active": true}, "geometry": {"type": "Point", "coordinates": [-34.945157300000005, -8.0422408]}}, {"type": "Feature", "properties": {"id": 72, "title": "Apartamento Bongi, Cordeiro", "price": "R$ 790", "address": "Rua Xavier Sobrinho, Prado, Recife, PE, 50630400", "url": "https://pe.olx.com.br/grande-recife/imoveis/apartamento-bongi-cordeiro-1366193805", "property_type": "Apartamentos", "modifiedAt": "20/01/2025 12:27:10", "active": true}, "geometry": {"type": "Point", "coordinates": [-34.9208872, -8.0589575]}}, {"type": "Feature", "properties": {"id": 73, "title": "Quarto para alugar", "price": "R$ 410", "address": "Avenida Professor Moraes Rego - de 830 a 1236 - lado par, Cidade Universitária, Recife, PE, 50740465", "url": "https://pe.olx.com.br/grande-recife/imoveis/quarto-para-alugar-1364603180", "property_type": "Aluguel de quartos", "modifiedAt": "20/01/2025 12:27:10", "active": true}, "geometry": {"type": "Point", "coordinates": [-34.94761830000001, -8.0544105]}}, {"type": "Feature", "properties": {"id": 74, "title": "Quarto disponível para aluguel próximo a UFPE ", "price": "R$ 600", "address": "Rua Almir Azevedo, Várzea, Recife, PE, 50740610", "url": "https://pe.olx.com.br/grande-recife/imoveis/quarto-disponivel-para-aluguel-proximo-a-ufpe-1364442302", "property_type": "Aluguel de quartos", "modifiedAt": "20/01/2025 12:27:10", "active": true}, "geometry": {"type": "Point", "coordinates": [-34.942916100000005, -8.0406444]}}, {"type": "Feature", "properties": {"id": 75, "title": "Alugo kitnet mobiliado no Cordeiro com água e Internet inclusos ", "price": "R$ 900", "address": "Rua Cordislândia, Iputinga, Recife, PE, 50731270", "url": "https://pe.olx.com.br/grande-recife/imoveis/alugo-kitnet-mobiliado-no-cordeiro-com-agua-e-internet-inclusos-1364199531", "property_type": "Apartamentos", "modifiedAt": "20/01/2025 12:27:10", "active": true}, "geometry": {"type": "Point", "coordinates": [-34.928704100000004, -8.0420402]}}, {"type": "Feature", "properties": {"id": 76, "title": "Aluga-se kitnet", "price": "R$ 800", "address": "Avenida Caxangá - de 4119 ao fim - lado ímpar, Várzea, Recife, PE, 50740000", "url": "https://pe.olx.com.br/grande-recife/imoveis/aluga-se-kitnet-1363829589", "property_type": "Apartamentos", "modifiedAt": "20/01/2025 12:27:10", "active": true}, "geometry": {"type": "Point", "coordinates": [-34.963173300000015, -8.0450381]}}, {"type": "Feature", "properties": {"id": 77, "title": "FLAT ao lado da UFPE *R$  870,00 * Em frente ao DEPT de FARMÁCIA UFPE", "price": "R$ 870", "address": "Avenida Professor Artur de Sá - lado par, Cidade Universitária, Recife, PE, 50740520", "url": "https://pe.olx.com.br/grande-recife/imoveis/flat-ao-lado-da-ufpe-r-870-00-em-frente-ao-dept-de-farmacia-ufpe-1076243263", "property_type": "Aluguel de quartos", "modifiedAt": "20/01/2025 12:27:10", "active": true}, "geometry": {"type": "Point", "coordinates": [-34.94661830000001, -8.0544105]}}, {"type": "Feature", "properties": {"id": 78, "title": "Quarto para aluguel (não é mobiliado)", "price": "R$ 750", "address": "Rua Rodrigues Ferreira, Várzea, Recife, PE, 50810020", "url": "https://pe.olx.com.br/grande-recife/imoveis/quarto-para-aluguel-nao-e-mobiliado-1363355799", "property_type": "Aluguel de quartos", "modifiedAt": "20/01/2025 12:27:10", "active": true}, "geometry": {"type": "Point", "coordinates": [-34.9546125, -8.0325918]}}, {"type": "Feature", "properties": {"id": 79, "title": "Casa em Gravatá ", "price": "R$ 500", "address": "Rua Conde de Irajá, Torre, Recife, PE, 50710310", "url": "https://pe.olx.com.br/grande-recife/imoveis/casa-em-gravata-1363115261", "property_type": "Casas", "modifiedAt": "20/01/2025 12:27:10", "active": true}, "geometry": {"type": "Point", "coordinates": [-34.9081136, -8.0461122]}}, {"type": "Feature", "properties": {"id": 80, "title": "Kitinet bem pertinho da UFPE", "price": "R$ 650", "address": "Rua Assaré, Várzea, Recife, PE, 50740300", "url": "https://pe.olx.com.br/grande-recife/imoveis/kitinet-bem-pertinho-da-ufpe-1362794838", "property_type": "Apartamentos", "modifiedAt": "20/01/2025 12:27:10", "active": true}, "geometry": {"type": "Point", "coordinates": [-34.9486612, -8.0413107]}}, {"type": "Feature", "properties": {"id": 81, "title": "Aluga-se uma casa", "price": "R$ 650", "address": "Rua Antero Mota, Cordeiro, Recife, PE, 50731010", "url": "https://pe.olx.com.br/grande-recife/imoveis/aluga-se-uma-casa-1364845992", "property_type": "Casas", "modifiedAt": "20/01/2025 12:27:10", "active": true}, "geometry": {"type": "Point", "coordinates": [-34.931157536951986, -8.000261649999999]}}, {"type": "Feature", "properties": {"id": 82, "title": "Quarto compartilhado Para homens -madalena", "price": "R$ 650", "address": "Rua Benfica, Madalena, Recife, PE, 50720001", "url": "https://pe.olx.com.br/grande-recife/imoveis/quarto-compartilhado-para-homens-madalena-1362302524", "property_type": "Aluguel de quartos", "modifiedAt": "20/01/2025 12:27:10", "active": true}, "geometry": {"type": "Point", "coordinates": [-34.9082887, -8.0580139]}}, {"type": "Feature", "properties": {"id": 83, "title": "Apartamento para aluguel, 2 quartos, 1 vaga, Varzea - Recife/PE", "price": "R$ 950", "address": "Rua Torres Homem, Várzea, Recife, PE, 50810040", "url": "https://pe.olx.com.br/grande-recife/imoveis/apartamento-para-aluguel-2-quartos-1-vaga-varzea-recife-pe-1326758845", "property_type": "Apartamentos", "modifiedAt": "20/01/2025 12:27:10", "active": true}, "geometry": {"type": "Point", "coordinates": [-34.9528666, -8.0364243]}}, {"type": "Feature", "properties": {"id": 84, "title": "PENSIONATO CIDADE UNIVERSITÁRIA - UFPE", "price": "R$ 680", "address": "Rua Deputado Cunha Rabelo, Várzea, Recife, PE, 50740400", "url": "https://pe.olx.com.br/grande-recife/imoveis/pensionato-cidade-universitaria-ufpe-1316924785", "property_type": "Aluguel de quartos", "modifiedAt": "20/01/2025 12:27:10", "active": true}, "geometry": {"type": "Point", "coordinates": [-34.9478451, -8.0455847]}}, {"type": "Feature", "properties": {"id": 85, "title": "Quarto individual para moça ", "price": "R$ 400", "address": "Rua Demócrito de Souza Filho, Madalena, Recife, PE, 50610120", "url": "https://pe.olx.com.br/grande-recife/imoveis/quarto-individual-para-moca-1361976693", "property_type": "Aluguel de quartos", "modifiedAt": "20/01/2025 12:27:10", "active": true}, "geometry": {"type": "Point", "coordinates": [-34.9055648, -8.0546794]}}, {"type": "Feature", "properties": {"id": 86, "title": "KITNET R$ 700, CDU VARZEA , COM SALA COZINHA, BANHEIRO PROXIMO A AVENIDA", "price": "R$ 700", "address": "Rua Poloni, Várzea, Recife, PE, 50740340", "url": "https://pe.olx.com.br/grande-recife/imoveis/kitnet-r-700-cdu-varzea-com-sala-cozinha-banheiro-proximo-a-avenida-1361930355", "property_type": "Apartamentos", "modifiedAt": "20/01/2025 12:27:10", "active": true}, "geometry": {"type": "Point", "coordinates": [-34.9516091, -8.0437722]}}, {"type": "Feature", "properties": {"id": 87, "title": "CASA EM ITAMARACÁ - LER O ANUNCIO", "price": "R$ 400", "address": "Rua Doutor José Anastácio da Silva Guimarães, Iputinga, Recife, PE, 50680620", "url": "https://pe.olx.com.br/grande-recife/imoveis/casa-em-itamaraca-ler-o-anuncio-1361768338", "property_type": "Casas", "modifiedAt": "20/01/2025 12:27:10", "active": true}, "geometry": {"type": "Point", "coordinates": [-34.9294008, -8.0377921]}}, {"type": "Feature", "properties": {"id": 88, "title": "Loft aconchegante no Derby - diária", "price": "R$ 150", "address": "Rua Arlindo Gouveia, Madalena, Recife, PE, 50720595", "url": "https://pe.olx.com.br/grande-recife/imoveis/loft-aconchegante-no-derby-diaria-1361365900", "property_type": "Apartamentos", "modifiedAt": "20/01/2025 12:27:10", "active": true}, "geometry": {"type": "Point", "coordinates": [-34.904007, -8.0570025]}}, {"type": "Feature", "properties": {"id": 89, "title": "QUARTO  PARA MULHERES EM RECIFE/PERNAMBUCO ", "price": "R$ 650", "address": "Avenida Caxangá - de 1221 a 1885 - lado ímpar, Cordeiro, Recife, PE, 50630000", "url": "https://pe.olx.com.br/grande-recife/imoveis/quarto-para-mulheres-em-recife-pernambuco-1361271213", "property_type": "Aluguel de quartos", "modifiedAt": "20/01/2025 12:27:10", "active": true}, "geometry": {"type": "Point", "coordinates": [-34.92554200000001, -8.0511193]}}, {"type": "Feature", "properties": {"id": 90, "title": "República  p/estudantes ou pessoas que trabalham em Recife", "price": "R$ 400", "address": "Rua Alexandria, Engenho do Meio, Recife, PE, 50730100", "url": "https://pe.olx.com.br/grande-recife/imoveis/republica-p-estudantes-ou-pessoas-que-trabalham-em-recife-1361245125", "property_type": "Aluguel de quartos", "modifiedAt": "20/01/2025 12:27:10", "active": true}, "geometry": {"type": "Point", "coordinates": [-34.9401816, -8.0629303]}}, {"type": "Feature", "properties": {"id": 91, "title": "Quarto para moças na Várzea ", "price": "R$ 850", "address": "Rua Maria Jaboatão, Várzea, Recife, PE, 50740360", "url": "https://pe.olx.com.br/grande-recife/imoveis/quarto-para-mocas-na-varzea-1361081723", "property_type": "Aluguel de quartos", "modifiedAt": "20/01/2025 12:27:10", "active": true}, "geometry": {"type": "Point", "coordinates": [-34.9493257, -8.0433902]}}, {"type": "Feature", "properties": {"id": 92, "title": "Quarto em apartamento na Madalena (para garotas)", "price": "R$ 917", "address": "Rua Ricardo Salazar - lado ímpar, Madalena, Recife, PE, 50720123", "url": "https://pe.olx.com.br/grande-recife/imoveis/quarto-em-apartamento-na-madalena-para-garotas-1360997911", "property_type": "Apartamentos", "modifiedAt": "20/01/2025 12:27:10", "active": true}, "geometry": {"type": "Point", "coordinates": [-34.90636860000001, -8.0537581]}}, {"type": "Feature", "properties": {"id": 93, "title": "ALUGA-SE CASA PROXIMO AO HOSPITAL DA MULHER", "price": "R$ 500", "address": "Rua Doutor Flávio Ferreira da Silva Marojo, Torrões, Recife, PE, 50761675", "url": "https://pe.olx.com.br/grande-recife/imoveis/aluga-se-casa-proximo-ao-hospital-da-mulher-1360901016", "property_type": "Casas", "modifiedAt": "20/01/2025 12:27:10", "active": true}, "geometry": {"type": "Point", "coordinates": [-34.9385081, -8.0691386]}}, {"type": "Feature", "properties": {"id": 94, "title": "Aluga-se na várzea recife um kitnet só para homem ou aluno sozinho.", "price": "R$ 400", "address": "Rua Riachão, Várzea, Recife, PE, 50810100", "url": "https://pe.olx.com.br/grande-recife/imoveis/aluga-se-na-varzea-recife-um-kitnet-so-para-homem-ou-aluno-sozinho-1360868090", "property_type": "Apartamentos", "modifiedAt": "20/01/2025 12:27:10", "active": true}, "geometry": {"type": "Point", "coordinates": [-34.9558125, -8.040525]}}, {"type": "Feature", "properties": {"id": 95, "title": "Kitnet mobiliada com tudo incluso DISPONIVEL EM FEVEREIRO APENAS", "price": "R$ 849", "address": "Rua Cristianópolis, Cordeiro, Recife, PE, 50721490", "url": "https://pe.olx.com.br/grande-recife/imoveis/kitnet-mobiliada-com-tudo-incluso-disponivel-em-fevereiro-apenas-1360636410", "property_type": "Casas", "modifiedAt": "20/01/2025 12:27:10", "active": true}, "geometry": {"type": "Point", "coordinates": [-34.9347873, -8.0500097]}}, {"type": "Feature", "properties": {"id": 96, "title": "apartamento aluga se na várzea", "price": "R$ 600", "address": "Rua Mário Campelo, Várzea, Recife, PE, 50741430", "url": "https://pe.olx.com.br/grande-recife/imoveis/apartamento-aluga-se-na-varzea-1359973623", "property_type": "Casas", "modifiedAt": "20/01/2025 12:27:10", "active": true}, "geometry": {"type": "Point", "coordinates": [-34.95693190000001, -8.0562238]}}, {"type": "Feature", "properties": {"id": 97, "title": "KITNET  IPUTINGA RS430", "price": "R$ 450", "address": "Rua Umari, Iputinga, Recife, PE, 50690520", "url": "https://pe.olx.com.br/grande-recife/imoveis/kitnet-iputinga-rs430-1359651976", "property_type": "Apartamentos", "modifiedAt": "20/01/2025 12:27:10", "active": true}, "geometry": {"type": "Point", "coordinates": [-34.9419187, -8.030887]}}, {"type": "Feature", "properties": {"id": 98, "title": "Casa de um quarto em condomínio fechado ", "price": "R$ 650", "address": "Rua Professor Severino Jordão Emerenciano, Iputinga, Recife, PE, 50680070", "url": "https://pe.olx.com.br/grande-recife/imoveis/casa-de-um-quarto-em-condominio-fechado-1359289935", "property_type": "Casas", "modifiedAt": "20/01/2025 12:27:10", "active": true}, "geometry": {"type": "Point", "coordinates": [-34.9362807, -8.0342797]}}, {"type": "Feature", "properties": {"id": 99, "title": "Quarto individual Masculino ", "price": "R$ 450", "address": "Rua Elpídio Branco, Várzea, Recife, PE, 50740250", "url": "https://pe.olx.com.br/grande-recife/imoveis/quarto-individual-masculino-1359182870", "property_type": "Aluguel de quartos", "modifiedAt": "20/01/2025 12:27:10", "active": true}, "geometry": {"type": "Point", "coordinates": [-34.948112900000005, -8.0403065]}}, {"type": "Feature", "properties": {"id": 100, "title": "kitnet na cidade universitária", "price": "R$ 750", "address": "Rua Abatia, Várzea, Recife, PE, 50740330", "url": "https://pe.olx.com.br/grande-recife/imoveis/kitnet-na-cidade-universitaria-1359095875", "property_type": "Casas", "modifiedAt": "20/01/2025 12:27:10", "active": true}, "geometry": {"type": "Point", "coordinates": [-34.950634, -8.0417353]}}, {"type": "Feature", "properties": {"id": 101, "title": "Alugo casa estilo kitnet ", "price": "R$ 800", "address": "Rua Torres Homem, Várzea, Recife, PE, 50810040", "url": "https://pe.olx.com.br/grande-recife/imoveis/alugo-casa-estilo-kitnet-1355828350", "property_type": "Casas", "modifiedAt": "20/01/2025 12:27:10", "active": true}, "geometry": {"type": "Point", "coordinates": [-34.9518666, -8.0364243]}}, {"type": "Feature", "properties": {"id": 102, "title": "Apartamento para aluguel, 1 quarto, 1 vaga, Iputinga - Recife/PE", "price": "R$ 800", "address": "Rua Pereira Coutinho Filho, Iputinga, Recife, PE, 50680180", "url": "https://pe.olx.com.br/grande-recife/imoveis/apartamento-para-aluguel-1-quarto-1-vaga-iputinga-recife-pe-1358972163", "property_type": "Apartamentos", "modifiedAt": "20/01/2025 12:27:10", "active": true}, "geometry": {"type": "Point", "coordinates": [-34.9321246, -8.0373592]}}, {"type": "Feature", "properties": {"id": 103, "title": "Alugo dois quartos individuais para mulheres em apartamento", "price": "R$ 550", "address": "Estrada do Barbalho - de 762/763 ao fim, Iputinga, Recife, PE, 50690000", "url": "https://pe.olx.com.br/grande-recife/imoveis/alugo-dois-quartos-individuais-para-mulheres-em-apartamento-1358813412", "property_type": "Apartamentos", "modifiedAt": "20/01/2025 12:27:10", "active": true}, "geometry": {"type": "Point", "coordinates": [-34.93534580000001, -8.0398236]}}, {"type": "Feature", "properties": {"id": 104, "title": "Quarto em apartamento para MULHER ", "price": "R$ 800", "address": "Rua Antônio Valdevino Costa - lado par, Cordeiro, Recife, PE, 50721775", "url": "https://pe.olx.com.br/grande-recife/imoveis/quarto-em-apartamento-para-mulher-1358652089", "property_type": "Aluguel de quartos", "modifiedAt": "20/01/2025 12:27:10", "active": true}, "geometry": {"type": "Point", "coordinates": [-34.92454200000001, -8.0511193]}}, {"type": "Feature", "properties": {"id": 105, "title": "Quarto c/ Banheiro Privativo UFPE - Mestrandos Doutorandos Pós Graduação", "price": "R$ 750", "address": "Rua Francisco Correia de Araújo, Várzea, Recife, PE, 50740430", "url": "https://pe.olx.com.br/grande-recife/imoveis/quarto-c-banheiro-privativo-ufpe-mestrandos-doutorandos-pos-graduacao-1325904592", "property_type": "Aluguel de quartos", "modifiedAt": "20/01/2025 12:27:10", "active": true}, "geometry": {"type": "Point", "coordinates": [-34.94415730000001, -8.0422408]}}, {"type": "Feature", "properties": {"id": 106, "title": "Quarto para Alugar", "price": "R$ 500", "address": "Rua Antônio Borges Uchôa, Engenho do Meio, Recife, PE, 50730230", "url": "https://pe.olx.com.br/grande-recife/imoveis/quarto-para-alugar-1358448374", "property_type": "Aluguel de quartos", "modifiedAt": "20/01/2025 12:27:10", "active": true}, "geometry": {"type": "Point", "coordinates": [-34.9423921, -8.0564889]}}, {"type": "Feature", "properties": {"id": 107, "title": "Kitinet para Alugar - Várzea - Recife", "price": "R$ 600", "address": "Rua Gastão Vidigal, Várzea, Recife, PE, 50980360", "url": "https://pe.olx.com.br/grande-recife/imoveis/kitinet-para-alugar-varzea-recife-1358039606", "property_type": "Casas", "modifiedAt": "20/01/2025 12:27:10", "active": true}, "geometry": {"type": "Point", "coordinates": [-34.95404920000001, -8.0301317]}}, {"type": "Feature", "properties": {"id": 108, "title": "Aluga-se kitnet", "price": "R$ 500", "address": "Rua Tomé do Rego Cavalcanti, Várzea, Recife, PE, 50741290", "url": "https://pe.olx.com.br/grande-recife/imoveis/aluga-se-kitnet-1357281750", "property_type": "Casas", "modifiedAt": "20/01/2025 12:27:11", "active": true}, "geometry": {"type": "Point", "coordinates": [-34.9551351, -8.0488251]}}, {"type": "Feature", "properties": {"id": 109, "title": "Beira Mar em Itamaracá 2qts Com Ar, Varanda, Redarios", "price": "R$ 350", "address": "Rua José Osório, Madalena, Recife, PE, 50610280", "url": "https://pe.olx.com.br/grande-recife/imoveis/beira-mar-em-itamaraca-2qts-com-ar-varanda-redarios-1357221607", "property_type": "Apartamentos", "modifiedAt": "20/01/2025 12:27:11", "active": true}, "geometry": {"type": "Point", "coordinates": [-34.9067858, -8.0533185]}}, {"type": "Feature", "properties": {"id": 110, "title": "casa", "price": "R$ 650", "address": "Torrões, Recife, PE, 50724520", "url": "https://pe.olx.com.br/grande-recife/imoveis/casa-1359433964", "property_type": "Casas", "modifiedAt": "20/01/2025 12:27:11", "active": true}, "geometry": {"type": "Point", "coordinates": [-34.934045700000006, -8.0618637]}}, {"type": "Feature", "properties": {"id": 111, "title": "Quitinete mobiliado, pra solteiros, transversal \"caxangá\"", "price": "R$ 700", "address": "Estrada do Forte do Arraial Novo do Bom Jesus - até 1225/1226, Cordeiro, Recife, PE, 50721110", "url": "https://pe.olx.com.br/grande-recife/imoveis/quitinete-mobiliado-pra-solteiros-transversal-caxanga-1357042006", "property_type": "Aluguel de quartos", "modifiedAt": "20/01/2025 12:27:11", "active": true}, "geometry": {"type": "Point", "coordinates": [-34.92354200000001, -8.0511193]}}, {"type": "Feature", "properties": {"id": 112, "title": "Aluga-se kit Net na cidade universitária Bairro da várzea ", "price": "R$ 500", "address": "Avenida Professor Artur de Sá - lado ímpar, Cidade Universitária, Recife, PE, 50740525", "url": "https://pe.olx.com.br/grande-recife/imoveis/aluga-se-kit-net-na-cidade-universitaria-bairro-da-varzea-1356596366", "property_type": "Casas", "modifiedAt": "20/01/2025 12:27:11", "active": true}, "geometry": {"type": "Point", "coordinates": [-34.945618300000014, -8.0544105]}}, {"type": "Feature", "properties": {"id": 113, "title": "Kit net prox a UFRPE,UFPE c taxas e mobilia", "price": "R$ 600", "address": "Rua Engenheiro Florisval Silvestre Neto (Com Nova Morada), Caxangá, Recife, PE, 50980745", "url": "https://pe.olx.com.br/grande-recife/imoveis/kit-net-prox-a-ufrpe-ufpe-c-taxas-e-mobilia-1354674543", "property_type": "Apartamentos", "modifiedAt": "20/01/2025 12:27:11", "active": true}, "geometry": {"type": "Point", "coordinates": [-34.94515100000001, -8.0303613]}}, {"type": "Feature", "properties": {"id": 114, "title": "Aluguel Flat/Kitnet na Várzea!", "price": "R$ 450", "address": "Rua Gastão Vidigal, Várzea, Recife, PE, 50980360", "url": "https://pe.olx.com.br/grande-recife/imoveis/aluguel-flat-kitnet-na-varzea-1354276311", "property_type": "Apartamentos", "modifiedAt": "20/01/2025 12:27:11", "active": true}, "geometry": {"type": "Point", "coordinates": [-34.95304920000001, -8.0301317]}}, {"type": "Feature", "properties": {"id": 115, "title": "Aluga-se quarto  para estudantes e sala comercial próximo a UFPE", "price": "R$ 750", "address": "Rua General Polidoro, Várzea, Recife, PE, 50740050", "url": "https://pe.olx.com.br/grande-recife/imoveis/aluga-se-quarto-para-estudantes-e-sala-comercial-proximo-a-ufpe-1250165482", "property_type": "Aluguel de quartos", "modifiedAt": "20/01/2025 12:27:11", "active": true}, "geometry": {"type": "Point", "coordinates": [-34.9461157, -8.0391645]}}, {"type": "Feature", "properties": {"id": 116, "title": "Kitnet mobiliado em jardim Petrópolis na várzea ", "price": "R$ 1.000", "address": "Rua Jaguaribara, Várzea, Recife, PE, 50980400", "url": "https://pe.olx.com.br/grande-recife/imoveis/kitnet-mobiliado-em-jardim-petropolis-na-varzea-1353898516", "property_type": "Apartamentos", "modifiedAt": "20/01/2025 12:27:11", "active": true}, "geometry": {"type": "Point", "coordinates": [-34.9666566, -8.0381959]}}, {"type": "Feature", "properties": {"id": 117, "title": "Casa na Várzea ", "price": "R$ 800", "address": "Avenida Afonso Olindense, Várzea, Recife, PE, 50810000", "url": "https://pe.olx.com.br/grande-recife/imoveis/casa-na-varzea-1353526853", "property_type": "Casas", "modifiedAt": "20/01/2025 12:27:11", "active": true}, "geometry": {"type": "Point", "coordinates": [-34.958054, -8.0408932]}}, {"type": "Feature", "properties": {"id": 118, "title": "Casa com Sala Ampla", "price": "R$ 750", "address": "Rua José de Holanda, Torre, Recife, PE, 50710140", "url": "https://pe.olx.com.br/grande-recife/imoveis/casa-com-sala-ampla-1344808939", "property_type": "Casas", "modifiedAt": "20/01/2025 12:27:11", "active": true}, "geometry": {"type": "Point", "coordinates": [-34.9106629, -8.0451634]}}, {"type": "Feature", "properties": {"id": 119, "title": "Alugo Apto. R$ 700,00, 150m da Pça. da Várzea, Perto da UFPE, Lugar Tranquilo, Ideal para", "price": "R$ 700", "address": "Rua Dona Maria Lacerda, Várzea, Recife, PE, 50741010", "url": "https://pe.olx.com.br/grande-recife/imoveis/alugo-apto-r-700-00-150m-da-pca-da-varzea-perto-da-ufpe-lugar-tranquilo-ideal-para-1311041519", "property_type": "Apartamentos", "modifiedAt": "20/01/2025 12:27:11", "active": true}, "geometry": {"type": "Point", "coordinates": [-34.9601074, -8.0464902]}}, {"type": "Feature", "properties": {"id": 120, "title": "Casa de beco para aluguel com 40 mts² com 2 quartos no Cordeiro - Recife .", "price": "R$ 700", "address": "Rua Felixlândia - de 149 ao fim - lado ímpar, Torrões, Recife, PE, 50650665", "url": "https://pe.olx.com.br/grande-recife/imoveis/casa-de-beco-para-aluguel-com-40-mts-com-2-quartos-no-cordeiro-recife-1293934549", "property_type": "Casas", "modifiedAt": "20/01/2025 12:27:11", "active": true}, "geometry": {"type": "Point", "coordinates": [-34.93304570000001, -8.0618637]}}, {"type": "Feature", "properties": {"id": 121, "title": "Apartamento para aluguel, 1 quarto, 1 vaga, Cordeiro - Recife/PE", "price": "R$ 880", "address": "Rua Francisco Vita, Cordeiro, Recife, PE, 50630190", "url": "https://pe.olx.com.br/grande-recife/imoveis/apartamento-para-aluguel-1-quarto-1-vaga-cordeiro-recife-pe-1282369079", "property_type": "Apartamentos", "modifiedAt": "20/01/2025 12:27:11", "active": true}, "geometry": {"type": "Point", "coordinates": [-34.9260977, -8.0521195]}}, {"type": "Feature", "properties": {"id": 122, "title": "TEMPORADA, excelente apartamento no melhor local do bairro da Torre.", "price": "R$ 160", "address": "Rua Davino Pontual - de 148/149 ao fim, Torre, Recife, PE, 50710465", "url": "https://pe.olx.com.br/grande-recife/imoveis/temporada-excelente-apartamento-no-melhor-local-do-bairro-da-torre-1139565286", "property_type": "Apartamentos", "modifiedAt": "20/01/2025 12:27:11", "active": true}, "geometry": {"type": "Point", "coordinates": [-34.902463800000014, -8.0425107]}}]}