{"type": "FeatureCollection", "features": [{"type": "Feature", "properties": {"id": 1, "title": "Alugo casa estilo kitnet térreo", "price": "R$ 650", "address": "Rua Torres Homem, Várzea, Recife, PE, 50810040", "url": "https://pe.olx.com.br/grande-recife/imoveis/alugo-casa-estilo-kitnet-terreo-1355828350", "property_type": "Casas", "modifiedAt": "11/02/2025 07:58:31", "active": true}, "geometry": {"type": "Point", "coordinates": [-34.9528666, -8.0364243]}}, {"type": "Feature", "properties": {"id": 2, "title": "Casa para alugar - leia o anúncio ", "price": "R$ 800", "address": "Rua Pedro Sá, Torrões, Recife, PE, 50650290", "url": "https://pe.olx.com.br/grande-recife/imoveis/casa-para-alugar-leia-o-anuncio-1377569505", "property_type": "Casas", "modifiedAt": "11/02/2025 07:58:31", "active": true}, "geometry": {"type": "Point", "coordinates": [-34.9367078, -8.0575911]}}, {"type": "Feature", "properties": {"id": 3, "title": "Casa para alugar (Leia o Anúncio)", "price": "R$ 800", "address": "Rua Pedro Sá, Torrões, Recife, PE, 50650290", "url": "https://pe.olx.com.br/grande-recife/imoveis/casa-para-alugar-leia-o-anuncio-1377539194", "property_type": "Casas", "modifiedAt": "11/02/2025 07:58:31", "active": true}, "geometry": {"type": "Point", "coordinates": [-34.9357078, -8.0575911]}}, {"type": "Feature", "properties": {"id": 4, "title": "Alugo casa ", "price": "R$ 600", "address": "Rua Expedicionário Agostinho Monteiro, Várzea, Recife, PE, 50970320", "url": "https://pe.olx.com.br/grande-recife/imoveis/alugo-casa-1377521425", "property_type": "Aluguel de quartos", "modifiedAt": "11/02/2025 07:58:31", "active": true}, "geometry": {"type": "Point", "coordinates": [-34.9773858, -8.0313623]}}, {"type": "Feature", "properties": {"id": 5, "title": "Casa com 3 quartos", "price": "R$ 600", "address": "Rua Rio Jamunda, Várzea, Recife, PE, 50970240", "url": "https://pe.olx.com.br/grande-recife/imoveis/casa-com-3-quartos-1377497951", "property_type": "Casas", "modifiedAt": "11/02/2025 07:58:31", "active": true}, "geometry": {"type": "Point", "coordinates": [-34.9730591, -8.0358214]}}, {"type": "Feature", "properties": {"id": 6, "title": "Imóvel para aluguel com 30 metros quadrados com 1 quarto em Torrões - Recife - PE", "price": "R$ 700", "address": "Rua Damasqueiro, Torrões, Recife, PE, 50640650", "url": "https://pe.olx.com.br/grande-recife/imoveis/imovel-para-aluguel-com-30-metros-quadrados-com-1-quarto-em-torroes-recife-pe-1377456249", "property_type": "Apartamentos", "modifiedAt": "11/02/2025 07:58:31", "active": true}, "geometry": {"type": "Point", "coordinates": [-34.9357382, -8.0625254]}}, {"type": "Feature", "properties": {"id": 7, "title": "Apartamento com 2 quartos em ótima localização", "price": "R$ 1.000", "address": "Rua Gastão Vidigal, Várzea, Recife, PE, 50980360", "url": "https://pe.olx.com.br/grande-recife/imoveis/apartamento-com-2-quartos-em-otima-localizacao-1377384529", "property_type": "Apartamentos", "modifiedAt": "11/02/2025 07:58:31", "active": true}, "geometry": {"type": "Point", "coordinates": [-34.9570492, -8.0301317]}}, {"type": "Feature", "properties": {"id": 8, "title": "Aluguel de casa", "price": "R$ 700", "address": "Rua Francisco Leopoldino, Várzea, Recife, PE, 50980060", "url": "https://pe.olx.com.br/grande-recife/imoveis/aluguel-de-casa-1377376237", "property_type": "Casas", "modifiedAt": "11/02/2025 07:58:31", "active": true}, "geometry": {"type": "Point", "coordinates": [-34.9631765, -8.0267081]}}, {"type": "Feature", "properties": {"id": 9, "title": "Aluga-se casa na caxangá ", "price": "R$ 1.000", "address": "Rua Cosme Bezerra Cavalcanti, Iputinga, Recife, PE, 50670310", "url": "https://pe.olx.com.br/grande-recife/imoveis/aluga-se-casa-na-caxanga-1377355716", "property_type": "Casas", "modifiedAt": "11/02/2025 07:58:31", "active": true}, "geometry": {"type": "Point", "coordinates": [-34.939038, -8.0412613]}}, {"type": "Feature", "properties": {"id": 10, "title": "Alugo suíte condomínio reserva polidoro.  ", "price": "R$ 1.000", "address": "Rua General Polidoro, Várzea, Recife, PE, 50740050", "url": "https://pe.olx.com.br/grande-recife/imoveis/alugo-suite-condominio-reserva-polidoro-1377354321", "property_type": "Apartamentos", "modifiedAt": "11/02/2025 07:58:31", "active": true}, "geometry": {"type": "Point", "coordinates": [-34.9461157, -8.0391645]}}, {"type": "Feature", "properties": {"id": 11, "title": "Kitnet mobiliado com um quarto, em jardim Petrópolis/várzea ", "price": "R$ 1.000", "address": "Rua Jaguaribara, Várzea, Recife, PE, 50980400", "url": "https://pe.olx.com.br/grande-recife/imoveis/kitnet-mobiliado-com-um-quarto-em-jardim-petropolis-varzea-1377253330", "property_type": "Apartamentos", "modifiedAt": "11/02/2025 07:58:31", "active": true}, "geometry": {"type": "Point", "coordinates": [-34.9666566, -8.0381959]}}, {"type": "Feature", "properties": {"id": 12, "title": "Apartamento para aluguel, 1 quarto, 1 vaga, Cordeiro - Recife/PE", "price": "R$ 1.000", "address": "Rua Francisco Vita, Cordeiro, Recife, PE, 50630190", "url": "https://pe.olx.com.br/grande-recife/imoveis/apartamento-para-aluguel-1-quarto-1-vaga-cordeiro-recife-pe-1377217554", "property_type": "Apartamentos", "modifiedAt": "11/02/2025 07:58:31", "active": true}, "geometry": {"type": "Point", "coordinates": [-34.9260977, -8.0521195]}}, {"type": "Feature", "properties": {"id": 13, "title": "Quarto aconchegante para alugar", "price": "R$ 900", "address": "Rua Félix Cavalcante Albuquerque, Prado, Recife, PE, 50720330", "url": "https://pe.olx.com.br/grande-recife/imoveis/quarto-aconchegante-para-alugar-1377152481", "property_type": "Aluguel de quartos", "modifiedAt": "11/02/2025 07:58:31", "active": true}, "geometry": {"type": "Point", "coordinates": [-34.9122019, -8.0573814]}}, {"type": "Feature", "properties": {"id": 14, "title": "Aluga-se kitnet na várzea Recife p/homem ou aluno sozinhos mesmo.", "price": "R$ 400", "address": "Rua Otávio Sarmento Cardoso, Várzea, Recife, PE, 50810070", "url": "https://pe.olx.com.br/grande-recife/imoveis/aluga-se-kitnet-na-varzea-recife-p-homem-ou-aluno-sozinhos-mesmo-1377105563", "property_type": "Aluguel de quartos", "modifiedAt": "11/02/2025 07:58:31", "active": true}, "geometry": {"type": "Point", "coordinates": [-34.9560666, -8.0373943]}}, {"type": "Feature", "properties": {"id": 15, "title": "kitnet na caxangá ", "price": "R$ 400", "address": "Avenida Barão de Bonito, Várzea, Recife, PE, 50740080", "url": "https://pe.olx.com.br/grande-recife/imoveis/kitnet-na-caxanga-1377096918", "property_type": "Casas", "modifiedAt": "11/02/2025 07:58:31", "active": true}, "geometry": {"type": "Point", "coordinates": [-34.9514743, -8.0389237]}}, {"type": "Feature", "properties": {"id": 16, "title": "Aluguel de suíte no Cordeiro ", "price": "R$ 280", "address": "Rua Joaquim Alheiros, Cordeiro, Recife, PE, 50711240", "url": "https://pe.olx.com.br/grande-recife/imoveis/aluguel-de-suite-no-cordeiro-1377082201", "property_type": "Aluguel de quartos", "modifiedAt": "11/02/2025 07:58:31", "active": true}, "geometry": {"type": "Point", "coordinates": [-34.9200064, -8.0459986]}}, {"type": "Feature", "properties": {"id": 17, "title": "Aluga-se Várzea Jardim Petrópolis ", "price": "R$ 900", "address": "Rua Gastão Vidigal, Várzea, Recife, PE, 50980360", "url": "https://pe.olx.com.br/grande-recife/imoveis/aluga-se-varzea-jardim-petropolis-1376776314", "property_type": "Apartamentos", "modifiedAt": "11/02/2025 07:58:31", "active": true}, "geometry": {"type": "Point", "coordinates": [-34.9560492, -8.0301317]}}, {"type": "Feature", "properties": {"id": 18, "title": "Alugar um kit net mobiliado no Cordeiro ", "price": "R$ 950", "address": "Rua Sertanópolis, Cordeiro, Recife, PE, 50721540", "url": "https://pe.olx.com.br/grande-recife/imoveis/alugar-um-kit-net-mobiliado-no-cordeiro-1376595786", "property_type": "Aluguel de quartos", "modifiedAt": "11/02/2025 07:58:32", "active": true}, "geometry": {"type": "Point", "coordinates": [-34.9355604, -8.0519968]}}, {"type": "Feature", "properties": {"id": 19, "title": "Casa no Sítio das palmeiras Cordeiro ", "price": "R$ 600", "address": "Rua Felixlândia - lado par, Cordeiro, Recife, PE, 50721555", "url": "https://pe.olx.com.br/grande-recife/imoveis/casa-no-sitio-das-palmeiras-cordeiro-1376580904", "property_type": "Casas", "modifiedAt": "11/02/2025 07:58:32", "active": true}, "geometry": {"type": "Point", "coordinates": [-34.927542, -8.0511193]}}, {"type": "Feature", "properties": {"id": 20, "title": "Kitnet", "price": "R$ 500", "address": "Rua São José (Com Nova Morada), Caxangá, Recife, PE, 50980698", "url": "https://pe.olx.com.br/grande-recife/imoveis/kitnet-1376339376", "property_type": "Casas", "modifiedAt": "11/02/2025 07:58:32", "active": true}, "geometry": {"type": "Point", "coordinates": [-34.948151, -8.0303613]}}, {"type": "Feature", "properties": {"id": 21, "title": "Aluga-se Kitnet  ", "price": "R$ 1.000", "address": "Avenida Beira Rio - de 1183 ao fim - lado ímpar, Torre, Recife, PE, 50710110", "url": "https://pe.olx.com.br/grande-recife/imoveis/aluga-se-kitnet-1376265780", "property_type": "Aluguel de quartos", "modifiedAt": "11/02/2025 07:58:32", "active": true}, "geometry": {"type": "Point", "coordinates": [-34.906463800000004, -8.0425107]}}, {"type": "Feature", "properties": {"id": 22, "title": "Apartamento para aluguel, 1 quarto, 1 vaga, Iputinga - Recife/PE", "price": "R$ 800", "address": "Rua Pereira Coutinho Filho, Iputinga, Recife, PE, 50680180", "url": "https://pe.olx.com.br/grande-recife/imoveis/apartamento-para-aluguel-1-quarto-1-vaga-iputinga-recife-pe-1376038769", "property_type": "Apartamentos", "modifiedAt": "11/02/2025 07:58:32", "active": true}, "geometry": {"type": "Point", "coordinates": [-34.9321246, -8.0373592]}}, {"type": "Feature", "properties": {"id": 23, "title": "Casa residencial para ALUGUEL com 2 quarto e GARAGEM s", "price": "R$ 920", "address": "Rua Antônio Correia de Araújo, Torrões, Recife, PE, 50761130", "url": "https://pe.olx.com.br/grande-recife/imoveis/casa-residencial-para-aluguel-com-2-quarto-e-garagem-s-1375782385", "property_type": "Casas", "modifiedAt": "11/02/2025 07:58:32", "active": true}, "geometry": {"type": "Point", "coordinates": [-34.9345111, -8.068101]}}, {"type": "Feature", "properties": {"id": 24, "title": "Casa alugo na várzea ", "price": "R$ 1.000", "address": "Rua da Jaqueira, Várzea, Recife, PE, 50810630", "url": "https://pe.olx.com.br/grande-recife/imoveis/casa-alugo-na-varzea-1375658320", "property_type": "Casas", "modifiedAt": "11/02/2025 07:58:32", "active": true}, "geometry": {"type": "Point", "coordinates": [-34.9334016, -8.1356606]}}, {"type": "Feature", "properties": {"id": 25, "title": "QUARTO PARA MULHER ", "price": "R$ 800", "address": "Rua Antônio Valdevino Costa - lado par, Cordeiro, Recife, PE, 50721775", "url": "https://pe.olx.com.br/grande-recife/imoveis/quarto-para-mulher-1375308362", "property_type": "Aluguel de quartos", "modifiedAt": "11/02/2025 07:58:32", "active": true}, "geometry": {"type": "Point", "coordinates": [-34.926542000000005, -8.0511193]}}, {"type": "Feature", "properties": {"id": 26, "title": "Quarto mobiliado ", "price": "R$ 600", "address": "Rua Gastão Vidigal, Várzea, Recife, PE, 50980360", "url": "https://pe.olx.com.br/grande-recife/imoveis/quarto-mobiliado-1375268014", "property_type": "Aluguel de quartos", "modifiedAt": "11/02/2025 07:58:32", "active": true}, "geometry": {"type": "Point", "coordinates": [-34.955049200000005, -8.0301317]}}, {"type": "Feature", "properties": {"id": 27, "title": "Alugo KITNET na cordeiro(leia o anúncio)", "price": "R$ 600", "address": "Rua Conselheiro Silveira de Souza, Iputinga, Recife, PE, 50721455", "url": "https://pe.olx.com.br/grande-recife/imoveis/alugo-kitnet-na-cordeiro-leia-o-anuncio-1375126165", "property_type": "Aluguel de quartos", "modifiedAt": "11/02/2025 07:58:32", "active": true}, "geometry": {"type": "Point", "coordinates": [-34.9305233, -8.0467808]}}, {"type": "Feature", "properties": {"id": 28, "title": "Alugo apartamento na Iputinga", "price": "R$ 1.000", "address": "Rua Osvaldo Guimarães, Iputinga, Recife, PE, 50670330", "url": "https://pe.olx.com.br/grande-recife/imoveis/alugo-apartamento-na-iputinga-1374982121", "property_type": "Apartamentos", "modifiedAt": "11/02/2025 07:58:32", "active": true}, "geometry": {"type": "Point", "coordinates": [-34.9413132, -8.0438262]}}, {"type": "Feature", "properties": {"id": 29, "title": "Quarto com banheiro para meninas", "price": "R$ 502", "address": "Rua Ricardo Salazar - lado ímpar, Madalena, Recife, PE, 50720123", "url": "https://pe.olx.com.br/grande-recife/imoveis/quarto-com-banheiro-para-meninas-1374963249", "property_type": "Aluguel de quartos", "modifiedAt": "11/02/2025 07:58:32", "active": true}, "geometry": {"type": "Point", "coordinates": [-34.907368600000005, -8.0537581]}}, {"type": "Feature", "properties": {"id": 30, "title": "Quarto para Alugar em Apartamento no Recife", "price": "R$ 600", "address": "Avenida Mário Álvares Pereira de Lyra - lado ímpar, Cordeiro, Recife, PE, 50721430", "url": "https://pe.olx.com.br/grande-recife/imoveis/quarto-para-alugar-em-apartamento-no-recife-1374963027", "property_type": "Apartamentos", "modifiedAt": "11/02/2025 07:58:32", "active": true}, "geometry": {"type": "Point", "coordinates": [-34.92554200000001, -8.0511193]}}, {"type": "Feature", "properties": {"id": 31, "title": "Aluguel de quarto ", "price": "R$ 700", "address": "Estrada do Caiara, Iputinga, Recife, PE, 50731360", "url": "https://pe.olx.com.br/grande-recife/imoveis/aluguel-de-quarto-1373223621", "property_type": "Aluguel de quartos", "modifiedAt": "11/02/2025 07:58:32", "active": true}, "geometry": {"type": "Point", "coordinates": [-34.9297041, -8.0420402]}}, {"type": "Feature", "properties": {"id": 32, "title": "Alugo 2 Quartos individuais 700 cada. Proximo a UFPE dar para ir andando", "price": "R$ 700", "address": "Rua Gaspar Perez, Iputinga, Recife, PE, 50670350", "url": "https://pe.olx.com.br/grande-recife/imoveis/alugo-2-quartos-individuais-700-cada-proximo-a-ufpe-dar-para-ir-andando-1374868350", "property_type": "Aluguel de quartos", "modifiedAt": "11/02/2025 07:58:32", "active": true}, "geometry": {"type": "Point", "coordinates": [-34.9429101, -8.0473952]}}, {"type": "Feature", "properties": {"id": 33, "title": "ALUGO QUARTO INDIVIDUAL EM APARTAMENTO  COMPARTILHADO (MENINAS)", "price": "R$ 950", "address": "Rua Monsenhor Silva, Madalena, Recife, PE, 50610360", "url": "https://pe.olx.com.br/grande-recife/imoveis/alugo-quarto-individual-em-apartamento-compartilhado-meninas-1374783546", "property_type": "Aluguel de quartos", "modifiedAt": "11/02/2025 07:58:32", "active": true}, "geometry": {"type": "Point", "coordinates": [-34.9113749, -8.0505252]}}, {"type": "Feature", "properties": {"id": 34, "title": "Vaga em quarto compartilhado (apenas mulheres)", "price": "R$ 650", "address": "Rua Félix Cavalcante Albuquerque, Prado, Recife, PE, 50720330", "url": "https://pe.olx.com.br/grande-recife/imoveis/vaga-em-quarto-compartilhado-apenas-mulheres-1374708926", "property_type": "Aluguel de quartos", "modifiedAt": "11/02/2025 07:58:32", "active": true}, "geometry": {"type": "Point", "coordinates": [-34.9112019, -8.0573814]}}, {"type": "Feature", "properties": {"id": 35, "title": "Kitnet cordeiro", "price": "R$ 800", "address": "Rua Desembargador Francisco Luíz, Cordeiro, Recife, PE, 50711310", "url": "https://pe.olx.com.br/grande-recife/imoveis/kitnet-cordeiro-1374678817", "property_type": "Apartamentos", "modifiedAt": "11/02/2025 07:58:32", "active": true}, "geometry": {"type": "Point", "coordinates": [-34.9232087, -8.0472249]}}, {"type": "Feature", "properties": {"id": 36, "title": "Casa em Igarassu para temporada, perto de recife , Olinda e porto de galinhas", "price": "R$ 180", "address": "Rua Doutor Augusto Ribeiro, Iputinga, Recife, PE, 50670090", "url": "https://pe.olx.com.br/grande-recife/imoveis/casa-em-igarassu-para-temporada-perto-de-recife-olinda-e-porto-de-galinhas-1374532205", "property_type": "Casas", "modifiedAt": "11/02/2025 07:58:32", "active": true}, "geometry": {"type": "Point", "coordinates": [-34.9371063, -8.0454546]}}, {"type": "Feature", "properties": {"id": 37, "title": "Alugo kitnet ", "price": "R$ 600", "address": "Rua Cantora Clara Nunes, Torre, Recife, PE, 50711550", "url": "https://pe.olx.com.br/grande-recife/imoveis/alugo-kitnet-1374502638", "property_type": "Apartamentos", "modifiedAt": "11/02/2025 07:58:32", "active": true}, "geometry": {"type": "Point", "coordinates": [-34.9140229, -8.0445286]}}, {"type": "Feature", "properties": {"id": 38, "title": "Alugar uma duplex no Cordeiro", "price": "R$ 950", "address": "Rua Sertanópolis, Cordeiro, Recife, PE, 50721540", "url": "https://pe.olx.com.br/grande-recife/imoveis/alugar-uma-duplex-no-cordeiro-1374457618", "property_type": "Casas", "modifiedAt": "11/02/2025 07:58:32", "active": true}, "geometry": {"type": "Point", "coordinates": [-34.9345604, -8.0519968]}}, {"type": "Feature", "properties": {"id": 39, "title": "APTO ALUGUEL IPUTINGA", "price": "R$ 800", "address": "Rua Luiz Maranhão, Iputinga, Recife, PE, 50800130", "url": "https://pe.olx.com.br/grande-recife/imoveis/apto-aluguel-iputinga-1374450458", "property_type": "Apartamentos", "modifiedAt": "11/02/2025 07:58:32", "active": true}, "geometry": {"type": "Point", "coordinates": [-34.9427408, -8.0332891]}}, {"type": "Feature", "properties": {"id": 40, "title": "1 Quarto aconchegante MADALENA", "price": "R$ 500", "address": "Rua João Crescêncio, Madalena, Recife, PE, 50720290", "url": "https://pe.olx.com.br/grande-recife/imoveis/1-quarto-aconchegante-madalena-1374211787", "property_type": "Aluguel de quartos", "modifiedAt": "11/02/2025 07:58:33", "active": true}, "geometry": {"type": "Point", "coordinates": [-34.9123848, -8.0565264]}}, {"type": "Feature", "properties": {"id": 41, "title": "Quarto privativo com SUÍTE para alugar ", "price": "R$ 500", "address": "Rua Padre Champagnat, Várzea, Recife, PE, 50740320", "url": "https://pe.olx.com.br/grande-recife/imoveis/quarto-privativo-com-suite-para-alugar-1374211707", "property_type": "Aluguel de quartos", "modifiedAt": "11/02/2025 07:58:33", "active": true}, "geometry": {"type": "Point", "coordinates": [-34.946780700000005, -8.0423004]}}, {"type": "Feature", "properties": {"id": 42, "title": "Casa ou kitnet para Aluguel - Urgente!", "price": "R$ 500", "address": "Rua do Jasmim, Cidade Universitária, Recife, PE, 50810620", "url": "https://pe.olx.com.br/grande-recife/imoveis/casa-ou-kitnet-para-aluguel-urgente-1374041237", "property_type": "Aluguel de quartos", "modifiedAt": "11/02/2025 07:58:33", "active": true}, "geometry": {"type": "Point", "coordinates": [-34.8907168, -8.0652282]}}, {"type": "Feature", "properties": {"id": 43, "title": "Aluga-se  linda casa na iputinga ", "price": "R$ 650", "address": "Rua Fernando Aércio Granjeiro de Souza, Iputinga, Recife, PE, 50690430", "url": "https://pe.olx.com.br/grande-recife/imoveis/aluga-se-linda-casa-na-iputinga-1373836838", "property_type": "Apartamentos", "modifiedAt": "11/02/2025 07:58:33", "active": true}, "geometry": {"type": "Point", "coordinates": [-34.936345800000005, -8.0398236]}}, {"type": "Feature", "properties": {"id": 44, "title": "Vaga para divisão de quarto em apartamento no Prado", "price": "R$ 650", "address": "Rua Félix Cavalcante Albuquerque, Prado, Recife, PE, 50720330", "url": "https://pe.olx.com.br/grande-recife/imoveis/vaga-para-divisao-de-quarto-em-apartamento-no-prado-1373818498", "property_type": "Apartamentos", "modifiedAt": "11/02/2025 07:58:33", "active": true}, "geometry": {"type": "Point", "coordinates": [-34.910201900000004, -8.0573814]}}, {"type": "Feature", "properties": {"id": 45, "title": "Casa com sala ampla", "price": "R$ 600", "address": "Rua José de Holanda, Torre, Recife, PE, 50710140", "url": "https://pe.olx.com.br/grande-recife/imoveis/casa-com-sala-ampla-1373769021", "property_type": "Casas", "modifiedAt": "11/02/2025 07:58:33", "active": true}, "geometry": {"type": "Point", "coordinates": [-34.9106629, -8.0451634]}}, {"type": "Feature", "properties": {"id": 46, "title": "Aluga-se  casa caruaru", "price": "R$ 600", "address": "Rua Souza Bandeira - de 274 ao fim - lado par, Torre, Recife, PE, 50711525", "url": "https://pe.olx.com.br/grande-recife/imoveis/aluga-se-casa-caruaru-1373377418", "property_type": "Casas", "modifiedAt": "11/02/2025 07:58:33", "active": true}, "geometry": {"type": "Point", "coordinates": [-34.90546380000001, -8.0425107]}}, {"type": "Feature", "properties": {"id": 47, "title": "Aluga - se excelente flat na várzea", "price": "R$ 1.000", "address": "Avenida Afonso Olindense, Várzea, Recife, PE, 50810000", "url": "https://pe.olx.com.br/grande-recife/imoveis/aluga-se-excelente-flat-na-varzea-1373313928", "property_type": "Apartamentos", "modifiedAt": "11/02/2025 07:58:33", "active": true}, "geometry": {"type": "Point", "coordinates": [-34.958054, -8.0408932]}}, {"type": "Feature", "properties": {"id": 48, "title": "Casa para alugar na iputinga primeiro andar localizada preço muito bom ", "price": "R$ 800", "address": "Rua Souza Bandeira, Zumbi, Recife, PE, 50711050", "url": "https://pe.olx.com.br/grande-recife/imoveis/casa-para-alugar-na-iputinga-primeiro-andar-localizada-preco-muito-bom-1373249139", "property_type": "Casas", "modifiedAt": "11/02/2025 07:58:33", "active": true}, "geometry": {"type": "Point", "coordinates": [-34.9188655, -8.0515614]}}, {"type": "Feature", "properties": {"id": 49, "title": "Quarto para alugar no Bairro da Várzea ", "price": "R$ 650", "address": "2ª Travessa Desembargador Rodolfo Aureliano, Várzea, Recife, PE, 50810302", "url": "https://pe.olx.com.br/grande-recife/imoveis/quarto-para-alugar-no-bairro-da-varzea-1373237529", "property_type": "Casas", "modifiedAt": "11/02/2025 07:58:33", "active": true}, "geometry": {"type": "Point", "coordinates": [-34.968173300000004, -8.0450381]}}, {"type": "Feature", "properties": {"id": 50, "title": "Casa Padrão excelente casa pequena de frente à UFPE lugar super tranquilo", "price": "R$ 700", "address": "Rua Acadêmico Hélio Ramos - até 99999 - lado ímpar, Várzea, Recife, PE, 50740533", "url": "https://pe.olx.com.br/grande-recife/imoveis/casa-padrao-excelente-casa-pequena-de-frente-a-ufpe-lugar-super-tranquilo-1373109012", "property_type": "Casas", "modifiedAt": "11/02/2025 07:58:33", "active": true}, "geometry": {"type": "Point", "coordinates": [-34.967173300000006, -8.0450381]}}, {"type": "Feature", "properties": {"id": 51, "title": "Aparentemente para aluga próximo a UFRPE ", "price": "R$ 850", "address": "Rua Tabelião João Roma (Com Nova Morada), Caxangá, Recife, PE, 50980635", "url": "https://pe.olx.com.br/grande-recife/imoveis/aparentemente-para-aluga-proximo-a-ufrpe-1373052279", "property_type": "Apartamentos", "modifiedAt": "11/02/2025 07:58:33", "active": true}, "geometry": {"type": "Point", "coordinates": [-34.947151000000005, -8.0303613]}}, {"type": "Feature", "properties": {"id": 52, "title": "Kitnet c/mobilia e sem, pra solteiros/transversal caxangá. Leiam o anúncio ", "price": "R$ 760", "address": "Estrada do Forte do Arraial Novo do Bom Jesus - até 1225/1226, Cordeiro, Recife, PE, 50721110", "url": "https://pe.olx.com.br/grande-recife/imoveis/kitnet-c-mobilia-e-sem-pra-solteiros-transversal-caxanga-leiam-o-anuncio-1372981352", "property_type": "Aluguel de quartos", "modifiedAt": "11/02/2025 07:58:33", "active": true}, "geometry": {"type": "Point", "coordinates": [-34.92454200000001, -8.0511193]}}, {"type": "Feature", "properties": {"id": 53, "title": "Quarto para Alugar em prédio no cordeiro, próx a av caxangá", "price": "R$ 750", "address": "Avenida Inácio Monteiro - de 1893/1894 ao fim, Cordeiro, Recife, PE, 50721325", "url": "https://pe.olx.com.br/grande-recife/imoveis/quarto-para-alugar-em-predio-no-cordeiro-prox-a-av-caxanga-1372856702", "property_type": "Aluguel de quartos", "modifiedAt": "11/02/2025 07:58:33", "active": true}, "geometry": {"type": "Point", "coordinates": [-34.92354200000001, -8.0511193]}}, {"type": "Feature", "properties": {"id": 54, "title": "ALUGO QUARTO EM APARTAMENTO COMPARTILHADO", "price": "R$ 600", "address": "Rua Uriel Paes Barreto, Madalena, Recife, PE, 50710500", "url": "https://pe.olx.com.br/grande-recife/imoveis/alugo-quarto-em-apartamento-compartilhado-1372636511", "property_type": "Aluguel de quartos", "modifiedAt": "11/02/2025 07:58:33", "active": true}, "geometry": {"type": "Point", "coordinates": [-34.90636860000001, -8.0537581]}}, {"type": "Feature", "properties": {"id": 55, "title": "Alugo kitnet por trás do Extra da Caxangá com égua e energia incluso ", "price": "R$ 750", "address": "Avenida Caxangá - de 3143 a 4117 - lado ímpar, Iputinga, Recife, PE, 50670000", "url": "https://pe.olx.com.br/grande-recife/imoveis/alugo-kitnet-por-tras-do-extra-da-caxanga-com-egua-e-energia-incluso-1372622212", "property_type": "Apartamentos", "modifiedAt": "11/02/2025 07:58:33", "active": true}, "geometry": {"type": "Point", "coordinates": [-34.93534580000001, -8.0398236]}}, {"type": "Feature", "properties": {"id": 56, "title": "Quartos individuais para alunas de mestrado e doutorado próximo a UFPE", "price": "R$ 600", "address": "Rua Tomé do Rego Cavalcanti, Várzea, Recife, PE, 50741290", "url": "https://pe.olx.com.br/grande-recife/imoveis/quartos-individuais-para-alunas-de-mestrado-e-doutorado-proximo-a-ufpe-1372417972", "property_type": "Aluguel de quartos", "modifiedAt": "11/02/2025 07:58:33", "active": true}, "geometry": {"type": "Point", "coordinates": [-34.9551351, -8.0488251]}}, {"type": "Feature", "properties": {"id": 57, "title": "Alugo casa ( kit net ) ", "price": "R$ 750", "address": "Rua Quinze de Março - até 99998 - lado par, Torrões, Recife, PE, 50761085", "url": "https://pe.olx.com.br/grande-recife/imoveis/alugo-casa-kit-net-1372343414", "property_type": "Casas", "modifiedAt": "11/02/2025 07:58:33", "active": true}, "geometry": {"type": "Point", "coordinates": [-34.9360457, -8.0618637]}}, {"type": "Feature", "properties": {"id": 58, "title": "Alugo sala pra escritório ", "price": "R$ 500", "address": "Rua Cosmo Avelino Ferreira, Iputinga, Recife, PE, 50690585", "url": "https://pe.olx.com.br/grande-recife/imoveis/alugo-sala-pra-escritorio-1372194421", "property_type": "Aluguel de quartos", "modifiedAt": "11/02/2025 07:58:33", "active": true}, "geometry": {"type": "Point", "coordinates": [-34.938191, -8.0319212]}}, {"type": "Feature", "properties": {"id": 59, "title": "Casa Piscina em Aldeia Diária. Finais de semana, Temporada.porada ", "price": "R$ 300", "address": "Rua José Felipe Santiago, Iputinga, Recife, PE, 50680090", "url": "https://pe.olx.com.br/grande-recife/imoveis/casa-piscina-em-aldeia-diaria-finais-de-semana-temporada-porada-1372034202", "property_type": "Casas", "modifiedAt": "11/02/2025 07:58:33", "active": true}, "geometry": {"type": "Point", "coordinates": [-34.933028, -8.0357461]}}, {"type": "Feature", "properties": {"id": 60, "title": "02 VAGAS APTO MOBILIADO PROX UFPE -APENAS MULHERES", "price": "R$ 700", "address": "Rua Estevão de Sá, Várzea, Recife, PE, 50740270", "url": "https://pe.olx.com.br/grande-recife/imoveis/02-vagas-apto-mobiliado-prox-ufpe-apenas-mulheres-1371968254", "property_type": "Apartamentos", "modifiedAt": "11/02/2025 07:58:33", "active": true}, "geometry": {"type": "Point", "coordinates": [-34.9491605, -8.0408686]}}, {"type": "Feature", "properties": {"id": 61, "title": "Vaga para divisão de quarto (2 mulheres)", "price": "R$ 650", "address": "Rua Félix Cavalcante Albuquerque, Prado, Recife, PE, 50720330", "url": "https://pe.olx.com.br/grande-recife/imoveis/vaga-para-divisao-de-quarto-2-mulheres-1371912482", "property_type": "Aluguel de quartos", "modifiedAt": "11/02/2025 07:58:33", "active": true}, "geometry": {"type": "Point", "coordinates": [-34.909201900000006, -8.0573814]}}, {"type": "Feature", "properties": {"id": 62, "title": "Aluga-se casa primeiro andar", "price": "R$ 900", "address": "Rua Poloni, Várzea, Recife, PE, 50740340", "url": "https://pe.olx.com.br/grande-recife/imoveis/aluga-se-casa-primeiro-andar-1371905722", "property_type": "Casas", "modifiedAt": "11/02/2025 07:58:33", "active": true}, "geometry": {"type": "Point", "coordinates": [-34.9506091, -8.0437722]}}, {"type": "Feature", "properties": {"id": 63, "title": "Estou a procura de casa para alugar nas aproximadamente de campo grande ", "price": "R$ 800", "address": "Rua Doutor Paulo Jacinto, Cordeiro, Recife, PE, 50731120", "url": "https://pe.olx.com.br/grande-recife/imoveis/estou-a-procura-de-casa-para-alugar-nas-aproximadamente-de-campo-grande-1374038425", "property_type": "Casas", "modifiedAt": "11/02/2025 07:58:33", "active": true}, "geometry": {"type": "Point", "coordinates": [-34.922542000000014, -8.0511193]}}, {"type": "Feature", "properties": {"id": 64, "title": "Quarto para estudantes ", "price": "R$ 500", "address": "Avenida Historiador Jordão Emerenciano, Iputinga, Recife, PE, 50800120", "url": "https://pe.olx.com.br/grande-recife/imoveis/quarto-para-estudantes-1371629312", "property_type": "Aluguel de quartos", "modifiedAt": "11/02/2025 07:58:34", "active": true}, "geometry": {"type": "Point", "coordinates": [-34.9426644, -8.0340635]}}, {"type": "Feature", "properties": {"id": 65, "title": "Quarto para alugar", "price": "R$ 650", "address": "2ª Travessa Desembargador Rodolfo Aureliano, Várzea, Recife, PE, 50810302", "url": "https://pe.olx.com.br/grande-recife/imoveis/quarto-para-alugar-1371616250", "property_type": "Aluguel de quartos", "modifiedAt": "11/02/2025 07:58:34", "active": true}, "geometry": {"type": "Point", "coordinates": [-34.96617330000001, -8.0450381]}}, {"type": "Feature", "properties": {"id": 66, "title": "KITNET PARA ALUGAR EM FRENTE A UFPE", "price": "R$ 800", "address": "Avenida Professor Artur de Sá - lado ímpar, Cidade Universitária, Recife, PE, 50740525", "url": "https://pe.olx.com.br/grande-recife/imoveis/kitnet-para-alugar-em-frente-a-ufpe-1371586670", "property_type": "Casas", "modifiedAt": "11/02/2025 07:58:34", "active": true}, "geometry": {"type": "Point", "coordinates": [-34.9506183, -8.0544105]}}, {"type": "Feature", "properties": {"id": 67, "title": "República p/ estudantes ou pessoas que trabalham em Recife", "price": "R$ 400", "address": "Rua Alexandria, Engenho do Meio, Recife, PE, 50730100", "url": "https://pe.olx.com.br/grande-recife/imoveis/republica-p-estudantes-ou-pessoas-que-trabalham-em-recife-1371578648", "property_type": "Casas", "modifiedAt": "11/02/2025 07:58:34", "active": true}, "geometry": {"type": "Point", "coordinates": [-34.9421816, -8.0629303]}}, {"type": "Feature", "properties": {"id": 68, "title": "Casa na Torre", "price": "R$ 450", "address": "Rua Cantor Altemar Dutra, Torre, Recife, PE, 50620685", "url": "https://pe.olx.com.br/grande-recife/imoveis/casa-na-torre-1371281859", "property_type": "Casas", "modifiedAt": "11/02/2025 07:58:34", "active": true}, "geometry": {"type": "Point", "coordinates": [-34.8771169, -8.0196017]}}, {"type": "Feature", "properties": {"id": 69, "title": "Kit net-R$ 550,00", "price": "R$ 550", "address": "Rua Tapaua, Torre, Recife, PE, 50620705", "url": "https://pe.olx.com.br/grande-recife/imoveis/kit-net-r-550-00-1371241459", "property_type": "Casas", "modifiedAt": "11/02/2025 07:58:34", "active": true}, "geometry": {"type": "Point", "coordinates": [-34.9114811, -8.0427093]}}, {"type": "Feature", "properties": {"id": 70, "title": "Quarto individual para moças ou ?", "price": "R$ 630", "address": "Avenida Caxangá - de 4119 ao fim - lado ímpar, Várzea, Recife, PE, 50740000", "url": "https://pe.olx.com.br/grande-recife/imoveis/quarto-individual-para-mocas-ou-1371077808", "property_type": "Aluguel de quartos", "modifiedAt": "11/02/2025 07:58:34", "active": true}, "geometry": {"type": "Point", "coordinates": [-34.96517330000001, -8.0450381]}}, {"type": "Feature", "properties": {"id": 71, "title": "Aluga-se um kitnet, com sala, um quarto, cozinha, banheiro e área de serviço na ur07 ", "price": "R$ 360", "address": "Rua Salema, Várzea, Recife, PE, 50960040", "url": "https://pe.olx.com.br/grande-recife/imoveis/aluga-se-um-kitnet-com-sala-um-quarto-cozinha-banheiro-e-area-de-servico-na-ur07-1370706153", "property_type": "Casas", "modifiedAt": "11/02/2025 07:58:34", "active": true}, "geometry": {"type": "Point", "coordinates": [-34.9773413, -8.0382035]}}, {"type": "Feature", "properties": {"id": 72, "title": "Aluga-se um kitnet semi-mobiliado  para estudante próx a UFPE", "price": "R$ 780", "address": "Rua das Palmeiras, Cidade Universitária, Recife, PE, 50740670", "url": "https://pe.olx.com.br/grande-recife/imoveis/aluga-se-um-kitnet-semi-mobiliado-para-estudante-prox-a-ufpe-1370602177", "property_type": "Casas", "modifiedAt": "11/02/2025 07:58:34", "active": true}, "geometry": {"type": "Point", "coordinates": [-34.9312478, -8.0059656]}}, {"type": "Feature", "properties": {"id": 73, "title": "Kitnet 10 minutos da UFPE ", "price": "R$ 800", "address": "Rua Nova Lusitânia, Várzea, Recife, PE, 50810340", "url": "https://pe.olx.com.br/grande-recife/imoveis/kitnet-10-minutos-da-ufpe-1370544486", "property_type": "Apartamentos", "modifiedAt": "11/02/2025 07:58:34", "active": true}, "geometry": {"type": "Point", "coordinates": [-34.9585914, -8.0401465]}}, {"type": "Feature", "properties": {"id": 74, "title": "Casa ", "price": "R$ 500", "address": "Rua Borges da Fonseca, Iputinga, Recife, PE, 50670550", "url": "https://pe.olx.com.br/grande-recife/imoveis/casa-1370407550", "property_type": "Casas", "modifiedAt": "11/02/2025 07:58:34", "active": true}, "geometry": {"type": "Point", "coordinates": [-34.9429345, -8.0478533]}}, {"type": "Feature", "properties": {"id": 75, "title": "Alugo casa em aldeia! ", "price": "R$ 400", "address": "Rua Professor Teódulo Miranda, Iputinga, Recife, PE, 50721460", "url": "https://pe.olx.com.br/grande-recife/imoveis/alugo-casa-em-aldeia-1310750106", "property_type": "Casas", "modifiedAt": "11/02/2025 07:58:34", "active": true}, "geometry": {"type": "Point", "coordinates": [-34.9338287, -8.044252]}}, {"type": "Feature", "properties": {"id": 76, "title": "Aluguel de quartos ", "price": "R$ 800", "address": "Rua Gastão Vidigal, Várzea, Recife, PE, 50980360", "url": "https://pe.olx.com.br/grande-recife/imoveis/aluguel-de-quartos-1370336370", "property_type": "Aluguel de quartos", "modifiedAt": "11/02/2025 07:58:34", "active": true}, "geometry": {"type": "Point", "coordinates": [-34.95404920000001, -8.0301317]}}, {"type": "Feature", "properties": {"id": 77, "title": "Quartos vagos em AP na Torre", "price": "R$ 980", "address": "Rua Dom Manoel da Costa - até 529 - lado ímpar, Madalena, Recife, PE, 50710395", "url": "https://pe.olx.com.br/grande-recife/imoveis/quartos-vagos-em-ap-na-torre-1369686074", "property_type": "Aluguel de quartos", "modifiedAt": "11/02/2025 07:58:34", "active": true}, "geometry": {"type": "Point", "coordinates": [-34.90536860000001, -8.0537581]}}, {"type": "Feature", "properties": {"id": 78, "title": "Alugo kitnet na torre, encruzilhada e prado 500 tudo incluso fone: */ *", "price": "R$ 500", "address": "Rua Diogo Álvares - lado par, Torre, Recife, PE, 50710215", "url": "https://pe.olx.com.br/grande-recife/imoveis/alugo-kitnet-na-torre-encruzilhada-e-prado-500-tudo-incluso-fone-1369664870", "property_type": "Apartamentos", "modifiedAt": "11/02/2025 07:58:34", "active": true}, "geometry": {"type": "Point", "coordinates": [-34.90446380000001, -8.0425107]}}, {"type": "Feature", "properties": {"id": 79, "title": "KITINETE * EM FRENTE  ao CFCH * UFPE  **** APT com 2 quartos próximo do HC UFPE", "price": "R$ 850", "address": "Avenida Professor Artur de Sá - lado par, Várzea, Recife, PE, 50740535", "url": "https://pe.olx.com.br/grande-recife/imoveis/kitinete-em-frente-ao-cfch-ufpe--apt-com-2-quartos-proximo-do-hc-ufpe-1150440635", "property_type": "Aluguel de quartos", "modifiedAt": "11/02/2025 07:58:34", "active": true}, "geometry": {"type": "Point", "coordinates": [-34.96417330000001, -8.0450381]}}, {"type": "Feature", "properties": {"id": 80, "title": "Procurando casa para alugar", "price": "R$ 400", "address": "Rua Cantora Clara Nunes, Torre, Recife, PE, 50711550", "url": "https://pe.olx.com.br/grande-recife/imoveis/procurando-casa-para-alugar-1369528854", "property_type": "Casas", "modifiedAt": "11/02/2025 07:58:34", "active": true}, "geometry": {"type": "Point", "coordinates": [-34.9130229, -8.0445286]}}, {"type": "Feature", "properties": {"id": 81, "title": "Kitnets para alugar ", "price": "R$ 350", "address": "Rua Canário (Vl N S da Conceição), Passarinho, Recife, PE, 52170110", "url": "https://pe.olx.com.br/grande-recife/imoveis/kitnets-para-alugar-1369520057", "property_type": "Casas", "modifiedAt": "11/02/2025 07:58:34", "active": true}, "geometry": {"type": "Point", "coordinates": [-34.9231801, -7.9818033]}}, {"type": "Feature", "properties": {"id": 82, "title": "Flat em GRAVATÁ ( diária)", "price": "R$ 200", "address": "Rua Dias D'Avila, Várzea, Recife, PE, 50980330", "url": "https://pe.olx.com.br/grande-recife/imoveis/flat-em-gravata-diaria-1369089180", "property_type": "Aluguel de quartos", "modifiedAt": "11/02/2025 07:58:34", "active": true}, "geometry": {"type": "Point", "coordinates": [-34.9593785, -8.0338123]}}, {"type": "Feature", "properties": {"id": 83, "title": "Kitnet: 40m², dormitório, sala, cozinha, bem próximo da UFPE na Iputinga!", "price": "R$ 900", "address": "Rua Cônego Luiz Gonzaga do Monte, Iputinga, Recife, PE, 50670620", "url": "https://pe.olx.com.br/grande-recife/imoveis/kitnet-40m-dormitorio-sala-cozinha-bem-proximo-da-ufpe-na-iputinga-1368950752", "property_type": "Apartamentos", "modifiedAt": "11/02/2025 07:58:34", "active": true}, "geometry": {"type": "Point", "coordinates": [-34.9415195, -8.048802]}}, {"type": "Feature", "properties": {"id": 84, "title": "Kitnet/ kitnete", "price": "R$ 650", "address": "Rua Marechal Manoel Luís Osório, Várzea, Recife, PE, 50740450", "url": "https://pe.olx.com.br/grande-recife/imoveis/kitnet-kitnete-1368583881", "property_type": "Casas", "modifiedAt": "11/02/2025 07:58:34", "active": true}, "geometry": {"type": "Point", "coordinates": [-34.9446807, -8.041505]}}, {"type": "Feature", "properties": {"id": 85, "title": "Aluga-se kit net em Recife-PE", "price": "R$ 300", "address": "Rua Quatro de Outubro - de 129/130 ao fim, Prado, Recife, PE, 50720752", "url": "https://pe.olx.com.br/grande-recife/imoveis/aluga-se-kit-net-em-recife-pe-1368255714", "property_type": "Apartamentos", "modifiedAt": "11/02/2025 07:58:34", "active": true}, "geometry": {"type": "Point", "coordinates": [-34.9139126, -8.0598858]}}, {"type": "Feature", "properties": {"id": 86, "title": "Republica para estudante em frente UFPE ao lado da reitoria", "price": "R$ 500", "address": "Rua Pantaleão Cirne, Engenho do Meio, Recife, PE, 50730330", "url": "https://pe.olx.com.br/grande-recife/imoveis/republica-para-estudante-em-frente-ufpe-ao-lado-da-reitoria-1368022454", "property_type": "Aluguel de quartos", "modifiedAt": "11/02/2025 07:58:34", "active": true}, "geometry": {"type": "Point", "coordinates": [-34.9455465, -8.054157]}}, {"type": "Feature", "properties": {"id": 87, "title": "Kitnet ao lado da UFPE ", "price": "R$ 600", "address": "1ª Travessa Visconde de Barbacena, Várzea, Recife, PE, 50740441", "url": "https://pe.olx.com.br/grande-recife/imoveis/kitnet-ao-lado-da-ufpe-1338272095", "property_type": "Apartamentos", "modifiedAt": "11/02/2025 07:58:35", "active": true}, "geometry": {"type": "Point", "coordinates": [-34.963173300000015, -8.0450381]}}, {"type": "Feature", "properties": {"id": 88, "title": "Casa para alugar em Bezerros/Serra negra.", "price": "R$ 400", "address": "Rua Francisco Bezerra Monteiro, Engenho do Meio, Recife, PE, 50730250", "url": "https://pe.olx.com.br/grande-recife/imoveis/casa-para-alugar-em-bezerros-serra-negra-1367897728", "property_type": "Casas", "modifiedAt": "11/02/2025 07:58:35", "active": true}, "geometry": {"type": "Point", "coordinates": [-34.9427898, -8.0546028]}}, {"type": "Feature", "properties": {"id": 89, "title": "quitinete  1 quarto PARA ALUGAR  na cidade universitária, perto de tudo", "price": "R$ 780", "address": "Rua Padre Champagnat, Várzea, Recife, PE, 50740320", "url": "https://pe.olx.com.br/grande-recife/imoveis/quitinete-1-quarto-para-alugar-na-cidade-universitaria-perto-de-tudo-1369593005", "property_type": "Apartamentos", "modifiedAt": "11/02/2025 07:58:35", "active": true}, "geometry": {"type": "Point", "coordinates": [-34.94578070000001, -8.0423004]}}, {"type": "Feature", "properties": {"id": 90, "title": "ALUGUEL QUARTO PARA SEXO FEMININO", "price": "R$ 800", "address": "Rua José Bonifácio - de 436/437 ao fim, Torre, Recife, PE, 50710001", "url": "https://pe.olx.com.br/grande-recife/imoveis/aluguel-quarto-para-sexo-feminino-1369053705", "property_type": "Aluguel de quartos", "modifiedAt": "11/02/2025 07:58:35", "active": true}, "geometry": {"type": "Point", "coordinates": [-34.90346380000001, -8.0425107]}}, {"type": "Feature", "properties": {"id": 91, "title": "Apartamento kitnete UFPE", "price": "R$ 700", "address": "Rua João Tavares, Várzea, Recife, PE, 50741320", "url": "https://pe.olx.com.br/grande-recife/imoveis/apartamento-kitnete-ufpe-1366671015", "property_type": "Apartamentos", "modifiedAt": "11/02/2025 07:58:35", "active": true}, "geometry": {"type": "Point", "coordinates": [-34.9566554, -8.0526895]}}, {"type": "Feature", "properties": {"id": 92, "title": "Apartamento para aluguel, 2 quartos, Varzea - Recife/PE", "price": "R$ 900", "address": "Rua Gastão Vidigal, Várzea, Recife, PE, 50980360", "url": "https://pe.olx.com.br/grande-recife/imoveis/apartamento-para-aluguel-2-quartos-varzea-recife-pe-1366383362", "property_type": "Apartamentos", "modifiedAt": "11/02/2025 07:58:35", "active": true}, "geometry": {"type": "Point", "coordinates": [-34.95304920000001, -8.0301317]}}, {"type": "Feature", "properties": {"id": 93, "title": "Alugo kitnet em frente à UFPE", "price": "R$ 700", "address": "Avenida Professor Artur de Sá - lado ímpar, Cidade Universitária, Recife, PE, 50740525", "url": "https://pe.olx.com.br/grande-recife/imoveis/alugo-kitnet-em-frente-a-ufpe-1366330614", "property_type": "Casas", "modifiedAt": "11/02/2025 07:58:35", "active": true}, "geometry": {"type": "Point", "coordinates": [-34.949618300000004, -8.0544105]}}, {"type": "Feature", "properties": {"id": 94, "title": "Kitnet para Alugar - Residencial Maria Amelia", "price": "R$ 700", "address": "Rua Gastão Vidigal, Várzea, Recife, PE, 50980360", "url": "https://pe.olx.com.br/grande-recife/imoveis/kitnet-para-alugar-residencial-maria-amelia-1365381380", "property_type": "Apartamentos", "modifiedAt": "11/02/2025 07:58:35", "active": true}, "geometry": {"type": "Point", "coordinates": [-34.95204920000001, -8.0301317]}}, {"type": "Feature", "properties": {"id": 95, "title": "Espaço para Aluguel.", "price": "R$ 500", "address": "Rua Carreiro, Iputinga, Recife, PE, 50680700", "url": "https://pe.olx.com.br/grande-recife/imoveis/espaco-para-aluguel-1365344868", "property_type": "Aluguel de quartos", "modifiedAt": "11/02/2025 07:58:35", "active": true}, "geometry": {"type": "Point", "coordinates": [-34.8966657, -8.0555429]}}, {"type": "Feature", "properties": {"id": 96, "title": "Alugo Quarto próximo a UFPE", "price": "R$ 600", "address": "Rua Almir Azevedo, Várzea, Recife, PE, 50740610", "url": "https://pe.olx.com.br/grande-recife/imoveis/alugo-quarto-proximo-a-ufpe-1365223086", "property_type": "Apartamentos", "modifiedAt": "11/02/2025 07:58:35", "active": true}, "geometry": {"type": "Point", "coordinates": [-34.9439161, -8.0406444]}}, {"type": "Feature", "properties": {"id": 97, "title": "DIVIDI CASA", "price": "R$ 400", "address": "Rua Oito de Fevereiro, Torrões, Recife, PE, 50660270", "url": "https://pe.olx.com.br/grande-recife/imoveis/dividi-casa-1366642853", "property_type": "Casas", "modifiedAt": "11/02/2025 07:58:35", "active": true}, "geometry": {"type": "Point", "coordinates": [-34.9402758, -8.0601644]}}, {"type": "Feature", "properties": {"id": 98, "title": "Kitnet ao lado da UFPE ", "price": "R$ 550", "address": "1ª Travessa Visconde de Barbacena, Várzea, Recife, PE, 50740441", "url": "https://pe.olx.com.br/grande-recife/imoveis/kitnet-ao-lado-da-ufpe-1365048733", "property_type": "Apartamentos", "modifiedAt": "11/02/2025 07:58:35", "active": true}, "geometry": {"type": "Point", "coordinates": [-34.96217330000002, -8.0450381]}}, {"type": "Feature", "properties": {"id": 99, "title": "RESIDÊNCIA ESTUDANTIL - 300 metros da UFPE", "price": "R$ 550", "address": "Rua Francisco Correia de Araújo, Várzea, Recife, PE, 50740430", "url": "https://pe.olx.com.br/grande-recife/imoveis/residencia-estudantil-300-metros-da-ufpe-1269278156", "property_type": "Aluguel de quartos", "modifiedAt": "11/02/2025 07:58:35", "active": true}, "geometry": {"type": "Point", "coordinates": [-34.9461573, -8.0422408]}}, {"type": "Feature", "properties": {"id": 100, "title": "Quarto disponível para aluguel próximo a UFPE ", "price": "R$ 600", "address": "Rua Almir Azevedo, Várzea, Recife, PE, 50740610", "url": "https://pe.olx.com.br/grande-recife/imoveis/quarto-disponivel-para-aluguel-proximo-a-ufpe-1364442302", "property_type": "Aluguel de quartos", "modifiedAt": "11/02/2025 07:58:35", "active": true}, "geometry": {"type": "Point", "coordinates": [-34.942916100000005, -8.0406444]}}, {"type": "Feature", "properties": {"id": 101, "title": "Alugo kitnet mobiliado no Cordeiro com água e Internet inclusos ", "price": "R$ 900", "address": "Rua Cordislândia, Iputinga, Recife, PE, 50731270", "url": "https://pe.olx.com.br/grande-recife/imoveis/alugo-kitnet-mobiliado-no-cordeiro-com-agua-e-internet-inclusos-1364199531", "property_type": "Apartamentos", "modifiedAt": "11/02/2025 07:58:35", "active": true}, "geometry": {"type": "Point", "coordinates": [-34.928704100000004, -8.0420402]}}, {"type": "Feature", "properties": {"id": 102, "title": "Aluga-se kitnet", "price": "R$ 800", "address": "Avenida Caxangá - de 4119 ao fim - lado ímpar, Várzea, Recife, PE, 50740000", "url": "https://pe.olx.com.br/grande-recife/imoveis/aluga-se-kitnet-1363829589", "property_type": "Apartamentos", "modifiedAt": "11/02/2025 07:58:35", "active": true}, "geometry": {"type": "Point", "coordinates": [-34.96117330000002, -8.0450381]}}, {"type": "Feature", "properties": {"id": 103, "title": "FLAT ao lado da UFPE *R$  870,00 * Em frente ao DEPT de FARMÁCIA UFPE", "price": "R$ 870", "address": "Avenida Professor Artur de Sá - lado par, Cidade Universitária, Recife, PE, 50740520", "url": "https://pe.olx.com.br/grande-recife/imoveis/flat-ao-lado-da-ufpe-r-870-00-em-frente-ao-dept-de-farmacia-ufpe-1076243263", "property_type": "Aluguel de quartos", "modifiedAt": "11/02/2025 07:58:35", "active": true}, "geometry": {"type": "Point", "coordinates": [-34.94861830000001, -8.0544105]}}, {"type": "Feature", "properties": {"id": 104, "title": "Casa em Gravatá ", "price": "R$ 500", "address": "Rua Conde de Irajá, Torre, Recife, PE, 50710310", "url": "https://pe.olx.com.br/grande-recife/imoveis/casa-em-gravata-1363115261", "property_type": "Casas", "modifiedAt": "11/02/2025 07:58:35", "active": true}, "geometry": {"type": "Point", "coordinates": [-34.9081136, -8.0461122]}}, {"type": "Feature", "properties": {"id": 105, "title": "Quarto compartilhado Para homens -madalena", "price": "R$ 650", "address": "Rua Benfica, Madalena, Recife, PE, 50720001", "url": "https://pe.olx.com.br/grande-recife/imoveis/quarto-compartilhado-para-homens-madalena-1362302524", "property_type": "Aluguel de quartos", "modifiedAt": "11/02/2025 07:58:35", "active": true}, "geometry": {"type": "Point", "coordinates": [-34.9082887, -8.0580139]}}, {"type": "Feature", "properties": {"id": 106, "title": "Apartamento para aluguel, 2 quartos, 1 vaga, Varzea - Recife/PE", "price": "R$ 950", "address": "Rua Torres Homem, Várzea, Recife, PE, 50810040", "url": "https://pe.olx.com.br/grande-recife/imoveis/apartamento-para-aluguel-2-quartos-1-vaga-varzea-recife-pe-1326758845", "property_type": "Apartamentos", "modifiedAt": "11/02/2025 07:58:35", "active": true}, "geometry": {"type": "Point", "coordinates": [-34.9518666, -8.0364243]}}, {"type": "Feature", "properties": {"id": 107, "title": "KITNET R$ 700, CDU VARZEA , COM SALA COZINHA, BANHEIRO PROXIMO A AVENIDA", "price": "R$ 700", "address": "Rua Poloni, Várzea, Recife, PE, 50740340", "url": "https://pe.olx.com.br/grande-recife/imoveis/kitnet-r-700-cdu-varzea-com-sala-cozinha-banheiro-proximo-a-avenida-1361930355", "property_type": "Apartamentos", "modifiedAt": "11/02/2025 07:58:35", "active": true}, "geometry": {"type": "Point", "coordinates": [-34.9496091, -8.0437722]}}, {"type": "Feature", "properties": {"id": 108, "title": "Casa no Cordeiro", "price": "R$ 600", "address": "Rua Itararé, Cordeiro, Recife, PE, 50630785", "url": "https://pe.olx.com.br/grande-recife/imoveis/casa-no-cordeiro-1360214220", "property_type": "Apartamentos", "modifiedAt": "11/02/2025 07:58:35", "active": true}, "geometry": {"type": "Point", "coordinates": [-34.92154200000002, -8.0511193]}}, {"type": "Feature", "properties": {"id": 109, "title": "Alugo Apto. R$ 700,00, 150m da Pça. da Várzea, Perto da UFPE, Lugar Tranquilo, Ideal para", "price": "R$ 700", "address": "Rua Dona Maria Lacerda, Várzea, Recife, PE, 50741010", "url": "https://pe.olx.com.br/grande-recife/imoveis/alugo-apto-r-700-00-150m-da-pca-da-varzea-perto-da-ufpe-lugar-tranquilo-ideal-para-1311041519", "property_type": "Apartamentos", "modifiedAt": "11/02/2025 07:58:35", "active": true}, "geometry": {"type": "Point", "coordinates": [-34.9601074, -8.0464902]}}]}
