{"type": "FeatureCollection", "features": [{"type": "Feature", "properties": {"id": 2, "title": "Kitnet pra alugar na torre ", "price": "R$ 550", "address": "Rua Diogo Álvares, Torre, Recife", "url": "https://pe.olx.com.br/grande-recife/imoveis/kitnet-pra-alugar-na-torre-1356285559", "property_type": "Aluguel de quartos", "modifiedAt": "21/11/2024 07:49:09", "active": true}, "geometry": {"type": "Point", "coordinates": [-46.8711441, -23.5763363]}}, {"type": "Feature", "properties": {"id": 5, "title": "alugo casa no bairro roda de fogo valor 500,00 reais ja com a agua incluso", "price": "R$ 500", "address": "Rua Luiz da Câmara Cascudo, Torrões, Recife", "url": "https://pe.olx.com.br/grande-recife/imoveis/alugo-casa-no-bairro-roda-de-fogo-valor-500-00-reais-ja-com-a-agua-incluso-1356103505", "property_type": "Casas", "modifiedAt": "21/11/2024 07:49:09", "active": true}, "geometry": {"type": "Point", "coordinates": [-34.939751, -8.056377]}}, {"type": "Feature", "properties": {"id": 10, "title": "Casa próximo a ufpe 600mts ", "price": "R$ 950", "address": "Rua Canaã, Cidade Universitária, Recife", "url": "https://pe.olx.com.br/grande-recife/imoveis/casa-proximo-a-ufpe-600mts-1129224132", "property_type": "Casas", "modifiedAt": "06/01/2025 08:21:46", "active": true}, "geometry": {"type": "Point", "coordinates": [-43.2452391, -22.8516012]}}, {"type": "Feature", "properties": {"id": 12, "title": "Salas Aluguel Cidade Universitária Várzea", "price": "R$ 800", "address": "Rua Visconde de Barbacena, Várzea, Recife", "url": "https://pe.olx.com.br/grande-recife/imoveis/salas-aluguel-cidade-universitaria-varzea-1355492941", "property_type": "Aluguel de quartos", "modifiedAt": "06/01/2025 09:30:35", "active": true}, "geometry": {"type": "Point", "coordinates": [-34.9443072, -8.041829]}}, {"type": "Feature", "properties": {"id": 16, "title": "Quartos individuais para alunas de mestrado e doutorado próximo a UFPE", "price": "R$ 600", "address": "Rua Tomé do Rego Cavalcanti, Várzea, Recife", "url": "https://pe.olx.com.br/grande-recife/imoveis/quartos-individuais-para-alunas-de-mestrado-e-doutorado-proximo-a-ufpe-1355301860", "property_type": "Aluguel de quartos", "modifiedAt": "09/01/2025 10:17:03", "active": true}, "geometry": {"type": "Point", "coordinates": [-34.9551351, -8.0488251]}}, {"type": "Feature", "properties": {"id": 17, "title": "Loft Derby", "price": "R$ 150", "address": "Rua Arlindo Gouveia, Madalena, Recife", "url": "https://pe.olx.com.br/grande-recife/imoveis/loft-derby-1355197921", "property_type": "Apartamentos", "modifiedAt": "09/01/2025 10:17:03", "active": true}, "geometry": {"type": "Point", "coordinates": [-39.5756436, -4.8542961]}}, {"type": "Feature", "properties": {"id": 19, "title": "kitnet próximo a UFPE na Várzea - Recife - PE", "price": "R$ 650", "address": "Rua Estevão de Sá, Várzea, Recife", "url": "https://pe.olx.com.br/grande-recife/imoveis/kitnet-proximo-a-ufpe-na-varzea-recife-pe-1354617408", "property_type": "Apartamentos", "modifiedAt": "13/12/2024 07:29:50", "active": true}, "geometry": {"type": "Point", "coordinates": [-34.9498148, -8.043282]}}, {"type": "Feature", "properties": {"id": 27, "title": "Kitnet Individual para Estudante UFPE", "price": "R$ 750", "address": "Rua Governador Lopo Garro, Cidade Universitária, Recife", "url": "https://pe.olx.com.br/grande-recife/imoveis/kitnet-individual-para-estudante-ufpe-1353676606", "property_type": "Aluguel de quartos", "modifiedAt": "06/01/2025 09:30:35", "active": true}, "geometry": {"type": "Point", "coordinates": [-43.2299583, -22.8558233]}}, {"type": "Feature", "properties": {"id": 31, "title": "KITINETE * EM FRENTE  ao CFCH * UFPE  **** APT com 2 quartos próximo do HC UFPE", "price": "R$ 850", "address": "Avenida Professor Artur de Sá, Várzea, Recife", "url": "https://pe.olx.com.br/grande-recife/imoveis/kitinete-em-frente-ao-cfch-ufpe--apt-com-2-quartos-proximo-do-hc-ufpe-1150440635", "property_type": "Aluguel de quartos", "modifiedAt": "21/11/2024 07:49:10", "active": true}, "geometry": {"type": "Point", "coordinates": [-34.9559658, -8.0463426]}}, {"type": "Feature", "properties": {"id": 39, "title": "aluga apartamento ", "price": "R$ 900", "address": "Rua Doutor Correia da Silva, Várzea, Recife", "url": "https://pe.olx.com.br/grande-recife/imoveis/aluga-apartamento-1355042983", "property_type": "Apartamentos", "modifiedAt": "13/12/2024 07:29:50", "active": true}, "geometry": {"type": "Point", "coordinates": [-34.9582279, -8.0480502]}}, {"type": "Feature", "properties": {"id": 89, "title": "Casa Ponta de Serrambi 5 Quartos", "price": "R$ 1.000", "address": "Rua Pessoa de Melo, Madalena, Recife", "url": "https://pe.olx.com.br/grande-recife/imoveis/casa-ponta-de-serrambi-5-quartos-1322649810", "property_type": "Casas", "modifiedAt": "06/01/2025 08:21:45", "active": true}, "geometry": {"type": "Point", "coordinates": [-39.581176, -4.865247]}}, {"type": "Feature", "properties": {"id": 110, "title": "Casa de vila para aluguel com 40 mts² com 2 quartos no Cordeiro - Recife .", "price": "R$ 650", "address": "Rua Felixlândia, Torrões, Recife", "url": "https://pe.olx.com.br/grande-recife/imoveis/casa-de-vila-para-aluguel-com-40-mts-com-2-quartos-no-cordeiro-recife-1293934549", "property_type": "Casas", "modifiedAt": "21/11/2024 07:49:12", "active": true}, "geometry": {"type": "Point", "coordinates": [-34.935308500000005, -8.0542571]}}, {"type": "Feature", "properties": {"id": 112, "title": "Apartamento para aluguel, 1 quarto, 1 vaga, Cordeiro - Recife/PE", "price": "R$ 880", "address": "Rua Francisco Vita, Cordeiro, Recife", "url": "https://pe.olx.com.br/grande-recife/imoveis/apartamento-para-aluguel-1-quarto-1-vaga-cordeiro-recife-pe-1282369079", "property_type": "Apartamentos", "modifiedAt": "06/01/2025 08:21:47", "active": true}, "geometry": {"type": "Point", "coordinates": [-42.375266, -22.034054]}}, {"type": "Feature", "properties": {"id": 117, "title": "500", "price": "R$ 500", "address": "Rua Luiz da Câmara Cascudo, Torrões, Recife", "url": "https://pe.olx.com.br/grande-recife/imoveis/500-1356103505", "property_type": "Casas", "modifiedAt": "28/11/2024 08:17:33", "active": true}, "geometry": {"type": "Point", "coordinates": [-34.941059, -8.061939]}}, {"type": "Feature", "properties": {"id": 118, "title": "RESIDÊNCIA ESTUDANTIL - 300 metros da UFPE", "price": "R$ 550", "address": "Rua Francisco Correia de Araújo, Várzea, Recife", "url": "https://pe.olx.com.br/grande-recife/imoveis/residencia-estudantil-300-metros-da-ufpe-1269278156", "property_type": "Aluguel de quartos", "modifiedAt": "06/01/2025 08:21:45", "active": true}, "geometry": {"type": "Point", "coordinates": [-34.9461573, -8.0422408]}}, {"type": "Feature", "properties": {"id": 120, "title": "Kitinet para Alugar - Várzea - Recife", "price": "R$ 600", "address": "Rua Gastão Vidigal, Várzea, Recife", "url": "https://pe.olx.com.br/grande-recife/imoveis/kitinet-para-alugar-varzea-recife-1358039606", "property_type": "Casas", "modifiedAt": "28/11/2024 08:17:32", "active": true}, "geometry": {"type": "Point", "coordinates": [-34.9570306, -8.0300925]}}, {"type": "Feature", "properties": {"id": 126, "title": "Beira Mar em Itamaracá 2qts Com Ar, Varanda, Redarios", "price": "R$ 350", "address": "Rua José Osório, Madalena, Recife", "url": "https://pe.olx.com.br/grande-recife/imoveis/beira-mar-em-itamaraca-2qts-com-ar-varanda-redarios-1357221607", "property_type": "Apartamentos", "modifiedAt": "06/01/2025 08:21:46", "active": true}, "geometry": {"type": "Point", "coordinates": [-39.573951, -4.850711]}}, {"type": "Feature", "properties": {"id": 127, "title": "Kit net", "price": "R$ 600", "address": "Rua Frei Jaboatão, Torre, Recife", "url": "https://pe.olx.com.br/grande-recife/imoveis/kit-net-1357099226", "property_type": "Casas", "modifiedAt": "28/11/2024 08:17:32", "active": true}, "geometry": {"type": "Point", "coordinates": [-46.8710098, -23.1578371]}}, {"type": "Feature", "properties": {"id": 147, "title": "KITNET  IPUTINGA RS430", "price": "R$ 450", "address": "Rua Umari, Iputinga, Recife", "url": "https://pe.olx.com.br/grande-recife/imoveis/kitnet-iputinga-rs430-1359651976", "property_type": "Apartamentos", "modifiedAt": "05/12/2024 08:38:30", "active": true}, "geometry": {"type": "Point", "coordinates": [-34.9419187, -8.030887]}}, {"type": "Feature", "properties": {"id": 150, "title": "Casa de um quarto em condomínio fechado ", "price": "R$ 650", "address": "Rua Professor Severino Jordão Emerenciano, Iputinga, Recife", "url": "https://pe.olx.com.br/grande-recife/imoveis/casa-de-um-quarto-em-condominio-fechado-1359289935", "property_type": "Casas", "modifiedAt": "26/12/2024 10:07:31", "active": true}, "geometry": {"type": "Point", "coordinates": [-34.9362807, -8.0342797]}}, {"type": "Feature", "properties": {"id": 152, "title": "Quarto individual Masculino ", "price": "R$ 450", "address": "Rua Elpídio Branco, Várzea, Recife", "url": "https://pe.olx.com.br/grande-recife/imoveis/quarto-individual-masculino-1359182870", "property_type": "Aluguel de quartos", "modifiedAt": "13/12/2024 07:29:49", "active": true}, "geometry": {"type": "Point", "coordinates": [-34.9501129, -8.0403065]}}, {"type": "Feature", "properties": {"id": 155, "title": "kitnet na cidade universitária", "price": "R$ 750", "address": "Rua Abatia, Várzea, Recife", "url": "https://pe.olx.com.br/grande-recife/imoveis/kitnet-na-cidade-universitaria-1359095875", "property_type": "Casas", "modifiedAt": "26/12/2024 10:07:31", "active": true}, "geometry": {"type": "Point", "coordinates": [-34.948481, -8.0421525]}}, {"type": "Feature", "properties": {"id": 157, "title": "Alugo dois quartos individuais para mulheres em apartamento", "price": "R$ 550", "address": "Estrada do Barbalho, Iputinga, Recife", "url": "https://pe.olx.com.br/grande-recife/imoveis/alugo-dois-quartos-individuais-para-mulheres-em-apartamento-1358813412", "property_type": "Apartamentos", "modifiedAt": "05/12/2024 08:38:30", "active": true}, "geometry": {"type": "Point", "coordinates": [-34.9407693, -8.0379536]}}, {"type": "Feature", "properties": {"id": 161, "title": "Aluga-se casa Maracaipe ", "price": "R$ 0", "address": "Rua Zilda S. de Santana, Torre, Recife", "url": "https://pe.olx.com.br/grande-recife/imoveis/aluga-se-casa-maracaipe-1358290301", "property_type": "Casas", "modifiedAt": "05/12/2024 08:38:31", "active": true}, "geometry": {"type": "Point", "coordinates": [-34.9146393, -8.0459123]}}, {"type": "Feature", "properties": {"id": 163, "title": "Aluguel de quarto - Bairro da Madalena ", "price": "R$ 650", "address": "Rua Benfica, Madalena, Recife", "url": "https://pe.olx.com.br/grande-recife/imoveis/aluguel-de-quarto-bairro-da-madalena-1360149910", "property_type": "Aluguel de quartos", "modifiedAt": "06/01/2025 08:21:46", "active": true}, "geometry": {"type": "Point", "coordinates": [-39.5746436, -4.8542961]}}, {"type": "Feature", "properties": {"id": 164, "title": "casa", "price": "R$ 650", "address": "Recife, Torrões", "url": "https://pe.olx.com.br/grande-recife/imoveis/casa-1359433964", "property_type": "Casas", "modifiedAt": "05/12/2024 08:38:31", "active": true}, "geometry": {"type": "Point", "coordinates": [-34.8848193, -8.0584933]}}, {"type": "Feature", "properties": {"id": 166, "title": "Kit net prox a UFRPE,UFPE c taxas e mobilia", "price": "R$ 600", "address": "Rua Engenheiro Florisval Silvestre Neto, Caxangá, Recife", "url": "https://pe.olx.com.br/grande-recife/imoveis/kit-net-prox-a-ufrpe-ufpe-c-taxas-e-mobilia-1354674543", "property_type": "Apartamentos", "modifiedAt": "20/12/2024 11:11:16", "active": true}, "geometry": {"type": "Point", "coordinates": [-34.949692500000005, -8.0232572]}}, {"type": "Feature", "properties": {"id": 178, "title": "Aluga casa na Iputinga com 2 quartos ", "price": "R$ 730", "address": "Rua Coronel Lima Botelho, Iputinga, Recife", "url": "https://pe.olx.com.br/grande-recife/imoveis/aluga-casa-na-iputinga-com-2-quartos-1362183629", "property_type": "Casas", "modifiedAt": "13/12/2024 07:29:48", "active": true}, "geometry": {"type": "Point", "coordinates": [-34.930101900000004, -8.034024]}}, {"type": "Feature", "properties": {"id": 181, "title": "KITNET R$ 700, CDU VARZEA , COM SALA COZINHA, BANHEIRO PROXIMO A AVENIDA", "price": "R$ 700", "address": "Rua Poloni, Várzea, Recife", "url": "https://pe.olx.com.br/grande-recife/imoveis/kitnet-r-700-cdu-varzea-com-sala-cozinha-banheiro-proximo-a-avenida-1361930355", "property_type": "Apartamentos", "modifiedAt": "13/12/2024 07:29:48", "active": true}, "geometry": {"type": "Point", "coordinates": [-34.9516091, -8.0437722]}}, {"type": "Feature", "properties": {"id": 182, "title": "CASA EM ITAMARACÁ - LER O ANUNCIO", "price": "R$ 400", "address": "Rua Doutor José Anastácio da Silva Guimarães, Iputinga, Recife", "url": "https://pe.olx.com.br/grande-recife/imoveis/casa-em-itamaraca-ler-o-anuncio-1361768338", "property_type": "Casas", "modifiedAt": "13/12/2024 07:29:49", "active": true}, "geometry": {"type": "Point", "coordinates": [-34.928574, -8.0383548]}}, {"type": "Feature", "properties": {"id": 188, "title": "Loft aconchegante no Derby - diária", "price": "R$ 150", "address": "Rua Arlindo Gouveia, Madalena, Recife", "url": "https://pe.olx.com.br/grande-recife/imoveis/loft-aconchegante-no-derby-diaria-1361365900", "property_type": "Apartamentos", "modifiedAt": "06/01/2025 08:21:46", "active": true}, "geometry": {"type": "Point", "coordinates": [-39.573643600000004, -4.8542961]}}, {"type": "Feature", "properties": {"id": 189, "title": "Kit net com mobília e taxas próx furor", "price": "R$ 600", "address": "Rua Engenheiro Florisval Silvestre Neto, Caxangá, Recife", "url": "https://pe.olx.com.br/grande-recife/imoveis/kit-net-com-mobilia-e-taxas-prox-furor-1361298266", "property_type": "Aluguel de quartos", "modifiedAt": "13/12/2024 07:29:49", "active": true}, "geometry": {"type": "Point", "coordinates": [-34.94869250000001, -8.0232572]}}, {"type": "Feature", "properties": {"id": 191, "title": "República  p/estudantes ou pessoas que trabalham em Recife", "price": "R$ 400", "address": "Rua Alexandria, Engenho do Meio, Recife", "url": "https://pe.olx.com.br/grande-recife/imoveis/republica-p-estudantes-ou-pessoas-que-trabalham-em-recife-1361245125", "property_type": "Aluguel de quartos", "modifiedAt": "13/12/2024 07:29:49", "active": true}, "geometry": {"type": "Point", "coordinates": [-34.9421816, -8.0629303]}}, {"type": "Feature", "properties": {"id": 192, "title": "Quarto para moças na Várzea ", "price": "R$ 850", "address": "Rua Maria Jaboatão, Várzea, Recife", "url": "https://pe.olx.com.br/grande-recife/imoveis/quarto-para-mocas-na-varzea-1361081723", "property_type": "Aluguel de quartos", "modifiedAt": "18/12/2024 12:23:35", "active": true}, "geometry": {"type": "Point", "coordinates": [-34.9493257, -8.0433902]}}, {"type": "Feature", "properties": {"id": 193, "title": "Quarto em apartamento na Madalena (para garotas)", "price": "R$ 917", "address": "Rua Ricardo Salazar, Madalena, Recife", "url": "https://pe.olx.com.br/grande-recife/imoveis/quarto-em-apartamento-na-madalena-para-garotas-1360997911", "property_type": "Apartamentos", "modifiedAt": "06/01/2025 08:21:46", "active": true}, "geometry": {"type": "Point", "coordinates": [-39.572643600000006, -4.8542961]}}, {"type": "Feature", "properties": {"id": 194, "title": "ALUGA-SE CASA PROXIMO AO HOSPITAL DA MULHER ", "price": "R$ 500", "address": "Rua Doutor Flávio Ferreira da Silva Marojo, Torrões, Recife", "url": "https://pe.olx.com.br/grande-recife/imoveis/aluga-se-casa-proximo-ao-hospital-da-mulher-1360901016", "property_type": "Casas", "modifiedAt": "20/12/2024 08:00:11", "active": true}, "geometry": {"type": "Point", "coordinates": [-34.9385081, -8.0691386]}}, {"type": "Feature", "properties": {"id": 195, "title": "Aluga-se na várzea recife um kitnet só para homem ou aluno sozinho.", "price": "R$ 400", "address": "Rua Riachão, Várzea, Recife", "url": "https://pe.olx.com.br/grande-recife/imoveis/aluga-se-na-varzea-recife-um-kitnet-so-para-homem-ou-aluno-sozinho-1360868090", "property_type": "Apartamentos", "modifiedAt": "09/01/2025 10:17:02", "active": true}, "geometry": {"type": "Point", "coordinates": [-34.9558125, -8.040525]}}, {"type": "Feature", "properties": {"id": 197, "title": "Kitnet mobiliada com tudo incluso", "price": "R$ 729", "address": "Rua Cristianópolis, Cordeiro, Recife", "url": "https://pe.olx.com.br/grande-recife/imoveis/kitnet-mobiliada-com-tudo-incluso-1360636410", "property_type": "Casas", "modifiedAt": "20/12/2024 08:00:11", "active": true}, "geometry": {"type": "Point", "coordinates": [-34.9347873, -8.0500097]}}, {"type": "Feature", "properties": {"id": 200, "title": "Sala comercial  em ótima localização pra alugar", "price": "R$ 0", "address": "Rua Cláudio Brotherhood, Cordeiro, Recife", "url": "https://pe.olx.com.br/grande-recife/imoveis/sala-comercial-em-otima-localizacao-pra-alugar-1354886407", "property_type": "Apartamentos", "modifiedAt": "06/01/2025 08:21:46", "active": true}, "geometry": {"type": "Point", "coordinates": [-42.364064, -22.026367]}}, {"type": "Feature", "properties": {"id": 204, "title": "Casa de beco para aluguel com 40 mts² com 2 quartos no Cordeiro - Recife .", "price": "R$ 700", "address": "Rua Felixlândia, Torrões, Recife", "url": "https://pe.olx.com.br/grande-recife/imoveis/casa-de-beco-para-aluguel-com-40-mts-com-2-quartos-no-cordeiro-recife-1293934549", "property_type": "Casas", "modifiedAt": "13/12/2024 07:29:50", "active": true}, "geometry": {"type": "Point", "coordinates": [-34.93430850000001, -8.0542571]}}, {"type": "Feature", "properties": {"id": 209, "title": "Quarto para aluguel (não é mobiliado)", "price": "R$ 750", "address": "Rua Rodrigues Ferreira, Várzea, Recife", "url": "https://pe.olx.com.br/grande-recife/imoveis/quarto-para-aluguel-nao-e-mobiliado-1363355799", "property_type": "Aluguel de quartos", "modifiedAt": "18/12/2024 12:23:34", "active": true}, "geometry": {"type": "Point", "coordinates": [-34.9543169, -8.0321729]}}, {"type": "Feature", "properties": {"id": 211, "title": "Casa em Gravatá ", "price": "R$ 500", "address": "Rua Conde de Irajá, Torre, Recife", "url": "https://pe.olx.com.br/grande-recife/imoveis/casa-em-gravata-1363115261", "property_type": "Casas", "modifiedAt": "18/12/2024 12:23:34", "active": true}, "geometry": {"type": "Point", "coordinates": [-34.9056485, -8.0457755]}}, {"type": "Feature", "properties": {"id": 215, "title": "Quarto para alugar Jockey Club", "price": "R$ 850", "address": "Rua Félix Cavalcante Albuquerque, Prado, Recife", "url": "https://pe.olx.com.br/grande-recife/imoveis/quarto-para-alugar-jockey-club-1362776974", "property_type": "Aluguel de quartos", "modifiedAt": "06/01/2025 08:21:45", "active": true}, "geometry": {"type": "Point", "coordinates": [-39.2177741, -17.3432883]}}, {"type": "Feature", "properties": {"id": 218, "title": "Casa Itamaracá Temporada com Piscina", "price": "R$ 250", "address": "Rua Real da Torre, Madalena, Recife", "url": "https://pe.olx.com.br/grande-recife/imoveis/casa-itamaraca-temporada-com-piscina-1285898135", "property_type": "Casas", "modifiedAt": "18/12/2024 12:23:35", "active": true}, "geometry": {"type": "Point", "coordinates": [-34.9082074, -8.0508853]}}, {"type": "Feature", "properties": {"id": 220, "title": "Apartamento para alugar em nova morada!", "price": "R$ 800", "address": "Rua Vereador Rúbens Gamboa, Caxangá, Recife", "url": "https://pe.olx.com.br/grande-recife/imoveis/apartamento-para-alugar-em-nova-morada-1362466216", "property_type": "Apartamentos", "modifiedAt": "09/01/2025 10:17:02", "active": true}, "geometry": {"type": "Point", "coordinates": [-34.9504999, -8.0243138]}}, {"type": "Feature", "properties": {"id": 222, "title": "Quarto compartilhado Para homens -madalena", "price": "R$ 650", "address": "Rua Benfica, Madalena, Recife", "url": "https://pe.olx.com.br/grande-recife/imoveis/quarto-compartilhado-para-homens-madalena-1362302524", "property_type": "Aluguel de quartos", "modifiedAt": "06/01/2025 08:21:46", "active": true}, "geometry": {"type": "Point", "coordinates": [-39.57164360000001, -4.8542961]}}, {"type": "Feature", "properties": {"id": 225, "title": "apartamento aluga se na várzea", "price": "R$ 600", "address": "Rua Mário Campelo, Várzea, Recife", "url": "https://pe.olx.com.br/grande-recife/imoveis/apartamento-aluga-se-na-varzea-1359973623", "property_type": "Casas", "modifiedAt": "06/01/2025 08:21:46", "active": true}, "geometry": {"type": "Point", "coordinates": [-34.9597413, -8.050849]}}, {"type": "Feature", "properties": {"id": 230, "title": "Aluga-se kitnet", "price": "R$ 800", "address": "Avenida Caxangá, Várzea, Recife", "url": "https://pe.olx.com.br/grande-recife/imoveis/aluga-se-kitnet-1363829589", "property_type": "Apartamentos", "modifiedAt": "19/12/2024 08:21:24", "active": true}, "geometry": {"type": "Point", "coordinates": [-34.9497646, -8.0346831]}}, {"type": "Feature", "properties": {"id": 232, "title": "Alugo kitnet mobiliado no Cordeiro com água e Internet inclusos ", "price": "R$ 900", "address": "Rua Cordislândia, Iputinga, Recife", "url": "https://pe.olx.com.br/grande-recife/imoveis/alugo-kitnet-mobiliado-no-cordeiro-com-agua-e-internet-inclusos-1364199531", "property_type": "Apartamentos", "modifiedAt": "20/12/2024 08:00:10", "active": true}, "geometry": {"type": "Point", "coordinates": [-34.9297041, -8.0420402]}}, {"type": "Feature", "properties": {"id": 236, "title": "Alugo Quarto próximo a UFPE", "price": "R$ 600", "address": "Rua Almir Azevedo, Várzea, Recife", "url": "https://pe.olx.com.br/grande-recife/imoveis/alugo-quarto-proximo-a-ufpe-1365223086", "property_type": "Apartamentos", "modifiedAt": "26/12/2024 10:07:30", "active": true}, "geometry": {"type": "Point", "coordinates": [-34.9439161, -8.0406444]}}, {"type": "Feature", "properties": {"id": 237, "title": "Kitnet ao lado da UFPE ", "price": "R$ 550", "address": "1ª Travessa Visconde de Barbacena, Várzea, Recife", "url": "https://pe.olx.com.br/grande-recife/imoveis/kitnet-ao-lado-da-ufpe-1365048733", "property_type": "Apartamentos", "modifiedAt": "26/12/2024 10:07:30", "active": true}, "geometry": {"type": "Point", "coordinates": [-34.949000000000005, -8.06667]}}, {"type": "Feature", "properties": {"id": 245, "title": "AlugueL De  kitnet", "price": "R$ 650", "address": "Rua Cordislândia, Iputinga, Recife", "url": "https://pe.olx.com.br/grande-recife/imoveis/aluguel-de-kitnet-1364676745", "property_type": "Aluguel de quartos", "modifiedAt": "26/12/2024 10:07:30", "active": true}, "geometry": {"type": "Point", "coordinates": [-34.928704100000004, -8.0420402]}}, {"type": "Feature", "properties": {"id": 246, "title": "Quarto disponível para aluguel próximo a UFPE ", "price": "R$ 600", "address": "Rua Almir Azevedo, Várzea, Recife", "url": "https://pe.olx.com.br/grande-recife/imoveis/quarto-disponivel-para-aluguel-proximo-a-ufpe-1364442302", "property_type": "Aluguel de quartos", "modifiedAt": "26/12/2024 10:07:30", "active": true}, "geometry": {"type": "Point", "coordinates": [-34.942916100000005, -8.0406444]}}, {"type": "Feature", "properties": {"id": 248, "title": "Kitinet bem pertinho da UFPE", "price": "R$ 650", "address": "Rua Assaré, Várzea, Recife", "url": "https://pe.olx.com.br/grande-recife/imoveis/kitinet-bem-pertinho-da-ufpe-1362794838", "property_type": "Apartamentos", "modifiedAt": "26/12/2024 10:07:30", "active": true}, "geometry": {"type": "Point", "coordinates": [-34.9486612, -8.0413107]}}, {"type": "Feature", "properties": {"id": 250, "title": "Apartamento para aluguel, 2 quartos, 1 vaga, Varzea - Recife/PE", "price": "R$ 950", "address": "Rua Torres Homem, Várzea, Recife", "url": "https://pe.olx.com.br/grande-recife/imoveis/apartamento-para-aluguel-2-quartos-1-vaga-varzea-recife-pe-1326758845", "property_type": "Apartamentos", "modifiedAt": "26/12/2024 10:07:31", "active": true}, "geometry": {"type": "Point", "coordinates": [-34.9545573, -8.0396353]}}, {"type": "Feature", "properties": {"id": 252, "title": "Alugo casa em aldeia! ", "price": "R$ 400", "address": "Rua Professor Teódulo Miranda, Iputinga, Recife", "url": "https://pe.olx.com.br/grande-recife/imoveis/alugo-casa-em-aldeia-1310750106", "property_type": "Casas", "modifiedAt": "06/01/2025 08:21:44", "active": true}, "geometry": {"type": "Point", "coordinates": [-34.9338287, -8.044252]}}, {"type": "Feature", "properties": {"id": 253, "title": "Aluga-se apartamento na Iputinga ", "price": "R$ 650", "address": "Rua José Frigueiro, Iputinga, Recife", "url": "https://pe.olx.com.br/grande-recife/imoveis/aluga-se-apartamento-na-iputinga-1367576620", "property_type": "Apartamentos", "modifiedAt": "06/01/2025 08:21:44", "active": true}, "geometry": {"type": "Point", "coordinates": [-34.9416129, -8.0480555]}}, {"type": "Feature", "properties": {"id": 255, "title": "Kitnet para alugar ", "price": "R$ 680", "address": "Rua Souza Bandeira, Torre, Recife", "url": "https://pe.olx.com.br/grande-recife/imoveis/kitnet-para-alugar-1367505758", "property_type": "Aluguel de quartos", "modifiedAt": "06/01/2025 08:21:44", "active": true}, "geometry": {"type": "Point", "coordinates": [-49.5063626, -28.2925954]}}, {"type": "Feature", "properties": {"id": 258, "title": "ALUGO KITNET NO CORDEIRO", "price": "R$ 600", "address": "Avenida General San Martin, Cordeiro, Recife", "url": "https://pe.olx.com.br/grande-recife/imoveis/alugo-kitnet-no-cordeiro-1367425813", "property_type": "Apartamentos", "modifiedAt": "06/01/2025 08:21:44", "active": true}, "geometry": {"type": "Point", "coordinates": [-42.257402, -21.994909]}}, {"type": "Feature", "properties": {"id": 259, "title": "Aluga Kit Net em Nova Morada ", "price": "R$ 400", "address": "Rua Zuleide Moura, Caxangá, Recife", "url": "https://pe.olx.com.br/grande-recife/imoveis/aluga-kit-net-em-nova-morada-1367421878", "property_type": "Aluguel de quartos", "modifiedAt": "06/01/2025 08:21:44", "active": true}, "geometry": {"type": "Point", "coordinates": [-34.945303, -8.0237716]}}, {"type": "Feature", "properties": {"id": 262, "title": "Torre", "price": "R$ 650", "address": "Rua Souza Bandeira, Torre, Recife", "url": "https://pe.olx.com.br/grande-recife/imoveis/torre-1366767094", "property_type": "Casas", "modifiedAt": "06/01/2025 08:21:44", "active": true}, "geometry": {"type": "Point", "coordinates": [-49.505362600000005, -28.2925954]}}, {"type": "Feature", "properties": {"id": 263, "title": "QUARTO PARA ALUGAR", "price": "R$ 550", "address": "Rua Osvaldo Guimarães, Iputinga, Recife", "url": "https://pe.olx.com.br/grande-recife/imoveis/quarto-para-alugar-1366476434", "property_type": "Aluguel de quartos", "modifiedAt": "06/01/2025 08:21:45", "active": true}, "geometry": {"type": "Point", "coordinates": [-34.9413132, -8.0438262]}}, {"type": "Feature", "properties": {"id": 265, "title": "Apartamento para aluguel, 2 quartos, Varzea - Recife/PE", "price": "R$ 900", "address": "Rua Gastão Vidigal, Várzea, Recife", "url": "https://pe.olx.com.br/grande-recife/imoveis/apartamento-para-aluguel-2-quartos-varzea-recife-pe-1366383362", "property_type": "Apartamentos", "modifiedAt": "06/01/2025 08:21:45", "active": true}, "geometry": {"type": "Point", "coordinates": [-34.956030600000005, -8.0300925]}}, {"type": "Feature", "properties": {"id": 266, "title": "Alugo kitnet em frente à UFPE", "price": "R$ 700", "address": "Avenida Professor Artur de Sá, Cidade Universitária, Recife", "url": "https://pe.olx.com.br/grande-recife/imoveis/alugo-kitnet-em-frente-a-ufpe-1366330614", "property_type": "Casas", "modifiedAt": "06/01/2025 08:21:45", "active": true}, "geometry": {"type": "Point", "coordinates": [-43.2289583, -22.8558233]}}, {"type": "Feature", "properties": {"id": 267, "title": "Alugo apartamento,  na rua Primeiro de Maio,  53, Várzea  ", "price": "R$ 1.000", "address": "Rua Primeiro de Maio, Várzea, Recife", "url": "https://pe.olx.com.br/grande-recife/imoveis/alugo-apartamento-na-rua-primeiro-de-maio-53-varzea-1366323715", "property_type": "Apartamentos", "modifiedAt": "06/01/2025 08:21:45", "active": true}, "geometry": {"type": "Point", "coordinates": [-34.9558997, -8.0411796]}}, {"type": "Feature", "properties": {"id": 268, "title": "Aluga-se Kitnet no Cordeiro ", "price": "R$ 700", "address": "Avenida General San Martin, Cordeiro, Recife", "url": "https://pe.olx.com.br/grande-recife/imoveis/aluga-se-kitnet-no-cordeiro-1366318606", "property_type": "Apartamentos", "modifiedAt": "06/01/2025 08:21:45", "active": true}, "geometry": {"type": "Point", "coordinates": [-42.256402, -21.994909]}}, {"type": "Feature", "properties": {"id": 269, "title": "Aluga-se aparentemente compacto bem localizado ", "price": "R$ 560", "address": "Rua Ator Rodolfo Mayer, Iputinga, Recife", "url": "https://pe.olx.com.br/grande-recife/imoveis/aluga-se-aparentemente-compacto-bem-localizado-1366201159", "property_type": "Apartamentos", "modifiedAt": "06/01/2025 08:21:45", "active": true}, "geometry": {"type": "Point", "coordinates": [-34.9374964, -8.0333428]}}, {"type": "Feature", "properties": {"id": 275, "title": "Kitnet para Alugar - Residencial Maria Amelia", "price": "R$ 700", "address": "Rua Gastão Vidigal, Várzea, Recife", "url": "https://pe.olx.com.br/grande-recife/imoveis/kitnet-para-alugar-residencial-maria-amelia-1365381380", "property_type": "Apartamentos", "modifiedAt": "09/01/2025 09:29:49", "active": true}, "geometry": {"type": "Point", "coordinates": [-34.95503060000001, -8.0300925]}}, {"type": "Feature", "properties": {"id": 276, "title": "Apartamento kitnete UFPE", "price": "R$ 700", "address": "Rua João Tavares, Várzea, Recife", "url": "https://pe.olx.com.br/grande-recife/imoveis/apartamento-kitnete-ufpe-1366671015", "property_type": "Apartamentos", "modifiedAt": "06/01/2025 08:21:45", "active": true}, "geometry": {"type": "Point", "coordinates": [-34.9558702, -8.0527901]}}, {"type": "Feature", "properties": {"id": 277, "title": "DIVIDI CASA", "price": "R$ 400", "address": "Rua Oito de Fevereiro, Torrões, Recife", "url": "https://pe.olx.com.br/grande-recife/imoveis/dividi-casa-1366642853", "property_type": "Casas", "modifiedAt": "06/01/2025 08:21:45", "active": true}, "geometry": {"type": "Point", "coordinates": [-34.9402758, -8.0601644]}}, {"type": "Feature", "properties": {"id": 278, "title": "Apartamento Bongi, Cordeiro", "price": "R$ 790", "address": "Rua Xavier Sobrinho, Prado, Recife", "url": "https://pe.olx.com.br/grande-recife/imoveis/apartamento-bongi-cordeiro-1366193805", "property_type": "Apartamentos", "modifiedAt": "06/01/2025 08:21:45", "active": true}, "geometry": {"type": "Point", "coordinates": [-39.2167741, -17.3432883]}}, {"type": "Feature", "properties": {"id": 279, "title": "Kitnet mobiliada com tudo incluso DISPONIVEL EM FEVEREIRO APENAS", "price": "R$ 849", "address": "Rua Cristianópolis, Cordeiro, Recife", "url": "https://pe.olx.com.br/grande-recife/imoveis/kitnet-mobiliada-com-tudo-incluso-disponivel-em-fevereiro-apenas-1360636410", "property_type": "Casas", "modifiedAt": "06/01/2025 08:21:46", "active": true}, "geometry": {"type": "Point", "coordinates": [-42.367573, -22.027337]}}, {"type": "Feature", "properties": {"id": 280, "title": "Alugada ", "price": "R$ 730", "address": "Rua Coronel Lima Botelho, Iputinga, Recife", "url": "https://pe.olx.com.br/grande-recife/imoveis/alugada-1362183629", "property_type": "Casas", "modifiedAt": "06/01/2025 08:21:46", "active": true}, "geometry": {"type": "Point", "coordinates": [-34.929101900000006, -8.034024]}}, {"type": "Feature", "properties": {"id": 281, "title": "Aproveite, casa boa no cordeiro com dois quartos", "price": "R$ 900", "address": "Rua Cláudio Brotherhood, Cordeiro, Recife", "url": "https://pe.olx.com.br/grande-recife/imoveis/aproveite-casa-boa-no-cordeiro-com-dois-quartos-1358825471", "property_type": "Casas", "modifiedAt": "06/01/2025 08:21:46", "active": true}, "geometry": {"type": "Point", "coordinates": [-42.363064, -22.026367]}}, {"type": "Feature", "properties": {"id": 282, "title": "Kitnet ao lado da UFPE ", "price": "R$ 600", "address": "1ª Travessa Visconde de Barbacena, Várzea, Recife", "url": "https://pe.olx.com.br/grande-recife/imoveis/kitnet-ao-lado-da-ufpe-1338272095", "property_type": "Apartamentos", "modifiedAt": "07/01/2025 11:41:32", "active": true}, "geometry": {"type": "Point", "coordinates": [-34.94800000000001, -8.06667]}}, {"type": "Feature", "properties": {"id": 285, "title": "Casa para alugar em Bezerros/Serra negra.", "price": "R$ 400", "address": "Rua Francisco Bezerra Monteiro, Engenho do Meio, Recife", "url": "https://pe.olx.com.br/grande-recife/imoveis/casa-para-alugar-em-bezerros-serra-negra-1367897728", "property_type": "Casas", "modifiedAt": "07/01/2025 11:41:32", "active": true}, "geometry": {"type": "Point", "coordinates": [-34.9427898, -8.0546028]}}, {"type": "Feature", "properties": {"id": 288, "title": "Alugase casa em nova morada caxanga ", "price": "R$ 800", "address": "Recife, Caxangá", "url": "https://pe.olx.com.br/grande-recife/imoveis/alugase-casa-em-nova-morada-caxanga-1367728705", "property_type": "Casas", "modifiedAt": "13/01/2025 08:05:33", "active": true}, "geometry": {"type": "Point", "coordinates": [-34.9517423, -8.0215114]}}, {"type": "Feature", "properties": {"id": 289, "title": "Chalé Piscina Privativa - Tamandaré", "price": "R$ 1.000", "address": "Rua Professor Chaves Batista, Várzea, Recife", "url": "https://pe.olx.com.br/grande-recife/imoveis/chale-piscina-privativa-tamandare-1367268284", "property_type": "Casas", "modifiedAt": "07/01/2025 11:41:33", "active": true}, "geometry": {"type": "Point", "coordinates": [-34.9444079, -8.0376]}}, {"type": "Feature", "properties": {"id": 290, "title": "Kitnet/ kitnete", "price": "R$ 650", "address": "Rua Marechal Manoel Luís Osório, Várzea, Recife", "url": "https://pe.olx.com.br/grande-recife/imoveis/kitnet-kitnete-1368583881", "property_type": "Casas", "modifiedAt": "09/01/2025 09:29:48", "active": true}, "geometry": {"type": "Point", "coordinates": [-34.9446807, -8.041505]}}, {"type": "Feature", "properties": {"id": 293, "title": "Quarto aconchegante com varanda e vista para a cidade", "price": "R$ 600", "address": "Rua Real da Torre, Madalena, Recife", "url": "https://pe.olx.com.br/grande-recife/imoveis/quarto-aconchegante-com-varanda-e-vista-para-a-cidade-1368443911", "property_type": "Aluguel de quartos", "modifiedAt": "09/01/2025 09:29:49", "active": true}, "geometry": {"type": "Point", "coordinates": [-39.57064360000001, -4.8542961]}}, {"type": "Feature", "properties": {"id": 294, "title": "550", "price": "R$ 550", "address": "Rua Antônio Rabelo, Madalena, Recife", "url": "https://pe.olx.com.br/grande-recife/imoveis/550-1368362655", "property_type": "Casas", "modifiedAt": "09/01/2025 09:29:49", "active": true}, "geometry": {"type": "Point", "coordinates": [-39.5665, -4.84812]}}, {"type": "Feature", "properties": {"id": 297, "title": "Alugam-se kit nets em Recife-PE", "price": "R$ 300", "address": "Rua Quatro de Outubro, Prado, Recife", "url": "https://pe.olx.com.br/grande-recife/imoveis/alugam-se-kit-nets-em-recife-pe-1368255714", "property_type": "Apartamentos", "modifiedAt": "09/01/2025 09:29:49", "active": true}, "geometry": {"type": "Point", "coordinates": [-39.215774100000004, -17.3432883]}}, {"type": "Feature", "properties": {"id": 299, "title": "Aluga-se uma casa ", "price": "R$ 600", "address": "Rua Caminho da Areinha, Várzea, Recife", "url": "https://pe.olx.com.br/grande-recife/imoveis/aluga-se-uma-casa-1368024607", "property_type": "Casas", "modifiedAt": "09/01/2025 09:29:49", "active": true}, "geometry": {"type": "Point", "coordinates": [-34.9668016, -8.023842]}}, {"type": "Feature", "properties": {"id": 300, "title": "Republica para estudante em frente UFPE ao lado da reitoria", "price": "R$ 500", "address": "Rua Pantaleão Cirne, Engenho do Meio, Recife", "url": "https://pe.olx.com.br/grande-recife/imoveis/republica-para-estudante-em-frente-ufpe-ao-lado-da-reitoria-1368022454", "property_type": "Aluguel de quartos", "modifiedAt": "09/01/2025 09:29:49", "active": true}, "geometry": {"type": "Point", "coordinates": [-34.9455465, -8.054157]}}, {"type": "Feature", "properties": {"id": 302, "title": "Casa ", "price": "R$ 650", "address": "Rua Henry Koster, Madalena, Recife", "url": "https://pe.olx.com.br/grande-recife/imoveis/casa-1368002766", "property_type": "Casas", "modifiedAt": "09/01/2025 09:29:49", "active": true}, "geometry": {"type": "Point", "coordinates": [-39.56964360000001, -4.8542961]}}, {"type": "Feature", "properties": {"id": 305, "title": "Ótima Sala no Centro", "price": "R$ 250", "address": "Rua Floriano Peixoto, São José, Recife", "url": "https://pe.olx.com.br/grande-recife/imoveis/otima-sala-no-centro-1352982910", "property_type": "Casas", "modifiedAt": "13/01/2025 08:05:30", "active": true}, "geometry": {"type": "Point", "coordinates": [-48.6276491, -27.6157733]}}, {"type": "Feature", "properties": {"id": 306, "title": "Kitinet em excelente localização do Espinheiro ", "price": "R$ 950", "address": "Rua da Hora, Espinheiro, Recife", "url": "https://pe.olx.com.br/grande-recife/imoveis/kitinet-em-excelente-localizacao-do-espinheiro-1364680755", "property_type": "Aluguel de quartos", "modifiedAt": "13/01/2025 08:05:30", "active": true}, "geometry": {"type": "Point", "coordinates": [-34.894752, -8.0469315]}}, {"type": "Feature", "properties": {"id": 307, "title": "Apto Boa Viagem 400 metros do mar ", "price": "R$ 250", "address": "Rua Professor Mário Castro, Boa Viagem, Recife", "url": "https://pe.olx.com.br/grande-recife/imoveis/apto-boa-viagem-400-metros-do-mar-1366572869", "property_type": "Apartamentos", "modifiedAt": "13/01/2025 08:05:30", "active": true}, "geometry": {"type": "Point", "coordinates": [-39.7290055, -5.1261877]}}, {"type": "Feature", "properties": {"id": 308, "title": "Apartamento com grade de proteção", "price": "R$ 700", "address": "Recife, Madalena", "url": "https://pe.olx.com.br/grande-recife/imoveis/apartamento-com-grade-de-protecao-1369548034", "property_type": "Apartamentos", "modifiedAt": "13/01/2025 08:05:30", "active": true}, "geometry": {"type": "Point", "coordinates": [-34.921399, -8.055802]}}, {"type": "Feature", "properties": {"id": 309, "title": "Casa em Nova Morada - 3 Quartos - Aluguel R$ 650,00", "price": "R$ 700", "address": "Rua Joana de Oliveira, Caxangá, Recife", "url": "https://pe.olx.com.br/grande-recife/imoveis/casa-em-nova-morada-3-quartos-aluguel-r-650-00-1369532895", "property_type": "Casas", "modifiedAt": "13/01/2025 08:05:30", "active": true}, "geometry": {"type": "Point", "coordinates": [-34.9496607, -8.0228074]}}, {"type": "Feature", "properties": {"id": 310, "title": "Casa em condomínio em Itamaracá", "price": "R$ 600", "address": "Avenida Santos Dumont, Rosarinho, Recife", "url": "https://pe.olx.com.br/grande-recife/imoveis/casa-em-condominio-em-itamaraca-1369531627", "property_type": "Casas", "modifiedAt": "13/01/2025 08:05:30", "active": true}, "geometry": {"type": "Point", "coordinates": [-34.8955136, -8.0320225]}}, {"type": "Feature", "properties": {"id": 311, "title": "Procurando casa para alugar", "price": "R$ 400", "address": "Rua Cantora Clara Nunes, Torre, Recife", "url": "https://pe.olx.com.br/grande-recife/imoveis/procurando-casa-para-alugar-1369528854", "property_type": "Casas", "modifiedAt": "13/01/2025 08:05:30", "active": true}, "geometry": {"type": "Point", "coordinates": [-49.50436260000001, -28.2925954]}}, {"type": "Feature", "properties": {"id": 312, "title": "Kitnets para alugar ", "price": "R$ 350", "address": "Rua Canário, Passarinho, Recife", "url": "https://pe.olx.com.br/grande-recife/imoveis/kitnets-para-alugar-1369520057", "property_type": "Casas", "modifiedAt": "13/01/2025 08:05:30", "active": true}, "geometry": {"type": "Point", "coordinates": [-34.9173208, -7.9796402]}}, {"type": "Feature", "properties": {"id": 313, "title": "Casa de Aluguel ", "price": "R$ 650", "address": "Travessa Ester, Macaxeira, Recife", "url": "https://pe.olx.com.br/grande-recife/imoveis/casa-de-aluguel-1369519252", "property_type": "Casas", "modifiedAt": "13/01/2025 08:05:30", "active": true}, "geometry": {"type": "Point", "coordinates": [-34.933108, -8.008399]}}, {"type": "Feature", "properties": {"id": 314, "title": "Casa para alugar ou vender Enseada dos golfinhos - Itamaraca", "price": "R$ 700", "address": "Rua Gervásio Campelo, Prado, Recife", "url": "https://pe.olx.com.br/grande-recife/imoveis/casa-para-alugar-ou-vender-enseada-dos-golfinhos-itamaraca-1347817576", "property_type": "Casas", "modifiedAt": "13/01/2025 08:05:30", "active": true}, "geometry": {"type": "Point", "coordinates": [-39.493052, -17.067647]}}, {"type": "Feature", "properties": {"id": 315, "title": "Kitnet em SAN Martin ", "price": "R$ 800", "address": "Rua Comendador José Vita, San Martin, Recife", "url": "https://pe.olx.com.br/grande-recife/imoveis/kitnet-em-san-martin-1369465467", "property_type": "Casas", "modifiedAt": "13/01/2025 08:05:30", "active": true}, "geometry": {"type": "Point", "coordinates": [-34.927237, -8.0686168]}}, {"type": "Feature", "properties": {"id": 316, "title": "Alugo um excelente kitnet em Afogados com água inclusa!", "price": "R$ 580", "address": "Rua Crucilândia, Afogados, Recife", "url": "https://pe.olx.com.br/grande-recife/imoveis/alugo-um-excelente-kitnet-em-afogados-com-agua-inclusa-1369456133", "property_type": "Apartamentos", "modifiedAt": "13/01/2025 08:05:30", "active": true}, "geometry": {"type": "Point", "coordinates": [-34.9140062, -8.0704524]}}, {"type": "Feature", "properties": {"id": 317, "title": "Alugo 3 quartos ! ", "price": "R$ 700", "address": "Rua Leôncio Rodrigues, Dois Unidos, Recife", "url": "https://pe.olx.com.br/grande-recife/imoveis/alugo-3-quartos-1369451261", "property_type": "Casas", "modifiedAt": "13/01/2025 08:05:30", "active": true}, "geometry": {"type": "Point", "coordinates": [-34.9118954, -8.0028116]}}, {"type": "Feature", "properties": {"id": 318, "title": "Alugo Casa de 2 quartos em primeiro andar no bairro de Afogados.", "price": "R$ 800", "address": "Rua Manoel Lubambo, Afogados, Recife", "url": "https://pe.olx.com.br/grande-recife/imoveis/alugo-casa-de-2-quartos-em-primeiro-andar-no-bairro-de-afogados-1369449747", "property_type": "Casas", "modifiedAt": "13/01/2025 08:05:30", "active": true}, "geometry": {"type": "Point", "coordinates": [-34.9168403, -8.0799852]}}, {"type": "Feature", "properties": {"id": 319, "title": "Casa em Nova Morada- Caxangá- 3 Quartos - Aluguel", "price": "R$ 650", "address": "Recife, Alto José Bonifácio", "url": "https://pe.olx.com.br/grande-recife/imoveis/casa-em-nova-morada-caxanga-3-quartos-aluguel-1369449598", "property_type": "Casas", "modifiedAt": "13/01/2025 08:05:30", "active": true}, "geometry": {"type": "Point", "coordinates": [-34.9127978, -8.0129991]}}, {"type": "Feature", "properties": {"id": 320, "title": "Aluguel de quarto para moças em Boa Viagem ", "price": "R$ 600", "address": "Rua Francisco de Barros Barreto, Boa Viagem, Recife", "url": "https://pe.olx.com.br/grande-recife/imoveis/aluguel-de-quarto-para-mocas-em-boa-viagem-1369446868", "property_type": "Aluguel de quartos", "modifiedAt": "13/01/2025 08:05:30", "active": true}, "geometry": {"type": "Point", "coordinates": [-39.7280055, -5.1261877]}}, {"type": "Feature", "properties": {"id": 321, "title": "Kit net ", "price": "R$ 500", "address": "Rua Guarulhos, Jardim São Paulo, Recife", "url": "https://pe.olx.com.br/grande-recife/imoveis/kit-net-1369411507", "property_type": "Casas", "modifiedAt": "13/01/2025 08:05:30", "active": true}, "geometry": {"type": "Point", "coordinates": [-46.6177979, -23.4910142]}}, {"type": "Feature", "properties": {"id": 322, "title": "Alugo casa em San Martin", "price": "R$ 790", "address": "Rua Dom Expedito Moura, San Martin, Recife", "url": "https://pe.olx.com.br/grande-recife/imoveis/alugo-casa-em-san-martin-1369396736", "property_type": "Casas", "modifiedAt": "13/01/2025 08:05:30", "active": true}, "geometry": {"type": "Point", "coordinates": [-34.9325068, -8.0715639]}}, {"type": "Feature", "properties": {"id": 323, "title": "ALUGA-SE QUARTO INDIVIDUAL PARA MULHER", "price": "R$ 650", "address": "Rua Ildefonso Araújo do Rego, Várzea, Recife", "url": "https://pe.olx.com.br/grande-recife/imoveis/aluga-se-quarto-individual-para-mulher-1369395610", "property_type": "Aluguel de quartos", "modifiedAt": "13/01/2025 08:05:30", "active": true}, "geometry": {"type": "Point", "coordinates": [-34.9567777, -8.041735]}}, {"type": "Feature", "properties": {"id": 324, "title": "Cafeteira Touch 3 corações ", "price": "R$ 300", "address": "Rua Petrolina, Boa Viagem, Recife", "url": "https://pe.olx.com.br/grande-recife/imoveis/cafeteira-touch-3-coracoes-1369395150", "property_type": "Apartamentos", "modifiedAt": "13/01/2025 08:05:30", "active": true}, "geometry": {"type": "Point", "coordinates": [-39.738333000000004, -5.117292]}}, {"type": "Feature", "properties": {"id": 325, "title": "Apartamento com vista privilegiada ", "price": "R$ 800", "address": "Rua Bugari, Morro da Conceição, Recife", "url": "https://pe.olx.com.br/grande-recife/imoveis/apartamento-com-vista-privilegiada-1369377348", "property_type": "Apartamentos", "modifiedAt": "13/01/2025 08:05:30", "active": true}, "geometry": {"type": "Point", "coordinates": [-43.1825222, -22.8991556]}}, {"type": "Feature", "properties": {"id": 326, "title": "Casa em ipsep", "price": "R$ 450", "address": "Rua Virgínia Heráclio, Ipsep, Recife", "url": "https://pe.olx.com.br/grande-recife/imoveis/casa-em-ipsep-1369336865", "property_type": "Casas", "modifiedAt": "13/01/2025 08:05:30", "active": true}, "geometry": {"type": "Point", "coordinates": [-34.923204, -8.107416]}}, {"type": "Feature", "properties": {"id": 327, "title": "Alugo Kitnet confortável Primeiro Andar. Bairro : Tejipio ", "price": "R$ 550", "address": "Rua Severino Luiz de França, Tejipió, Recife", "url": "https://pe.olx.com.br/grande-recife/imoveis/alugo-kitnet-confortavel-primeiro-andar-bairro-tejipio-1369335442", "property_type": "Apartamentos", "modifiedAt": "13/01/2025 08:05:30", "active": true}, "geometry": {"type": "Point", "coordinates": [-34.9583943, -8.0895058]}}, {"type": "Feature", "properties": {"id": 328, "title": "Aluga casa *  *", "price": "R$ 500", "address": "Recife, Areias", "url": "https://pe.olx.com.br/grande-recife/imoveis/aluga-casa--1369334877", "property_type": "Casas", "modifiedAt": "13/01/2025 08:05:31", "active": true}, "geometry": {"type": "Point", "coordinates": [NaN, NaN]}}, {"type": "Feature", "properties": {"id": 329, "title": "ALUGA-SE CASA EM AFOGADOS ", "price": "R$ 750", "address": "Travessa Carlópolis, Afogados, Recife", "url": "https://pe.olx.com.br/grande-recife/imoveis/aluga-se-casa-em-afogados-1369330790", "property_type": "Apartamentos", "modifiedAt": "13/01/2025 08:05:31", "active": true}, "geometry": {"type": "Point", "coordinates": [-34.914509, -8.0732582]}}, {"type": "Feature", "properties": {"id": 330, "title": "Casa tipo kitnet ", "price": "R$ 350", "address": "Rua Taguatinga, Beberibe, Recife", "url": "https://pe.olx.com.br/grande-recife/imoveis/casa-tipo-kitnet-1369322021", "property_type": "Casas", "modifiedAt": "13/01/2025 08:05:31", "active": true}, "geometry": {"type": "Point", "coordinates": [-38.1298101, -4.1810469]}}, {"type": "Feature", "properties": {"id": 331, "title": "Alugo casa areias", "price": "R$ 500", "address": "Rua da Carvoeira, Areias, Recife", "url": "https://pe.olx.com.br/grande-recife/imoveis/alugo-casa-areias-1369321073", "property_type": "Casas", "modifiedAt": "13/01/2025 08:05:31", "active": true}, "geometry": {"type": "Point", "coordinates": [-44.695042, -22.584029]}}, {"type": "Feature", "properties": {"id": 332, "title": "ALUGA-SE CASA EM AFOGADOS", "price": "R$ 600", "address": "Travessa Carlópolis, Afogados, Recife", "url": "https://pe.olx.com.br/grande-recife/imoveis/aluga-se-casa-em-afogados-1369320068", "property_type": "Apartamentos", "modifiedAt": "13/01/2025 08:05:31", "active": true}, "geometry": {"type": "Point", "coordinates": [-34.913509000000005, -8.0732582]}}, {"type": "Feature", "properties": {"id": 333, "title": "Casa para alugar ", "price": "R$ 500", "address": "Recife, Alto José Bonifácio", "url": "https://pe.olx.com.br/grande-recife/imoveis/casa-para-alugar-1369317582", "property_type": "Casas", "modifiedAt": "13/01/2025 08:05:31", "active": true}, "geometry": {"type": "Point", "coordinates": [NaN, NaN]}}, {"type": "Feature", "properties": {"id": 334, "title": "Alugo ótimo APARTAMENTOS EM ÁGUA FRIA.", "price": "R$ 800", "address": "Rua São Sebastião, Água Fria, Recife", "url": "https://pe.olx.com.br/grande-recife/imoveis/alugo-otimo-apartamentos-em-agua-fria-1161663689", "property_type": "Apartamentos", "modifiedAt": "13/01/2025 08:05:31", "active": true}, "geometry": {"type": "Point", "coordinates": [-38.7663706, -11.8784691]}}, {"type": "Feature", "properties": {"id": 335, "title": "Apartamento esquina shopping Boa Vista ", "price": "R$ 1.000", "address": "Rua Gervásio Pires, Boa Vista, Recife", "url": "https://pe.olx.com.br/grande-recife/imoveis/apartamento-esquina-shopping-boa-vista-1369299640", "property_type": "Apartamentos", "modifiedAt": "13/01/2025 08:05:31", "active": true}, "geometry": {"type": "Point", "coordinates": [-34.885357400000004, -8.0595062]}}, {"type": "Feature", "properties": {"id": 336, "title": "Kitnet para Alugar em Afogados", "price": "R$ 500", "address": "Rua Príncipe da Beira, Jiquiá, Recife", "url": "https://pe.olx.com.br/grande-recife/imoveis/kitnet-para-alugar-em-afogados-1369288457", "property_type": "Casas", "modifiedAt": "13/01/2025 08:05:31", "active": true}, "geometry": {"type": "Point", "coordinates": [-34.9256685, -8.0898223]}}, {"type": "Feature", "properties": {"id": 337, "title": "Casa conjugada pequena, 1 quarto próximo a UFRPE", "price": "R$ 450", "address": "Avenida Luís Antônio de Araújo, Sítio dos Pintos, Recife", "url": "https://pe.olx.com.br/grande-recife/imoveis/casa-conjugada-pequena-1-quarto-proximo-a-ufrpe-1369272976", "property_type": "Casas", "modifiedAt": "13/01/2025 08:05:31", "active": true}, "geometry": {"type": "Point", "coordinates": [-34.9558125, -8.0151742]}}, {"type": "Feature", "properties": {"id": 338, "title": "Kitnet", "price": "R$ 500", "address": "1º Alto Buriti, Nova Descoberta, Recife", "url": "https://pe.olx.com.br/grande-recife/imoveis/kitnet-1369272935", "property_type": "Casas", "modifiedAt": "13/01/2025 08:05:31", "active": true}, "geometry": {"type": "Point", "coordinates": [-35.1975475, -5.8269204]}}, {"type": "Feature", "properties": {"id": 339, "title": "Alugo Apartamento em Cruz de Rebouça - Igarassu", "price": "R$ 800", "address": "Rua Alto José Bonifácio, Alto José Bonifácio, Recife", "url": "https://pe.olx.com.br/grande-recife/imoveis/alugo-apartamento-em-cruz-de-rebouca-igarassu-1369266816", "property_type": "Apartamentos", "modifiedAt": "13/01/2025 08:05:31", "active": true}, "geometry": {"type": "Point", "coordinates": [-34.9116089, -8.0181195]}}, {"type": "Feature", "properties": {"id": 340, "title": "Casa para alugar em Brasília teimosa ", "price": "R$ 750", "address": "Travessa da Alegria, Pina, Recife", "url": "https://pe.olx.com.br/grande-recife/imoveis/casa-para-alugar-em-brasilia-teimosa-1369258226", "property_type": "Casas", "modifiedAt": "13/01/2025 08:05:31", "active": true}, "geometry": {"type": "Point", "coordinates": [-34.8777834, -8.0807925]}}, {"type": "Feature", "properties": {"id": 341, "title": "Kitnet próximo da A. Caxangá ", "price": "R$ 400", "address": "5ª Travessa Waldemar Reis do Rego, Iputinga, Recife", "url": "https://pe.olx.com.br/grande-recife/imoveis/kitnet-proximo-da-a-caxanga-1369256977", "property_type": "Casas", "modifiedAt": "13/01/2025 08:05:31", "active": true}, "geometry": {"type": "Point", "coordinates": [-34.9373458, -8.0398236]}}, {"type": "Feature", "properties": {"id": 342, "title": "Kitnet Boa Vista Recife ", "price": "R$ 899", "address": "Avenida Manoel Borba, Soledade, Recife", "url": "https://pe.olx.com.br/grande-recife/imoveis/kitnet-boa-vista-recife-1369241859", "property_type": "Casas", "modifiedAt": "13/01/2025 08:05:31", "active": true}, "geometry": {"type": "Point", "coordinates": [-52.5099157, -28.8272467]}}, {"type": "Feature", "properties": {"id": 343, "title": "Endereco na descricao Apartamento 2 quartos muito confortavel", "price": "R$ 800", "address": "Recife, Boa Viagem", "url": "https://pe.olx.com.br/grande-recife/imoveis/endereco-na-descricao-apartamento-2-quartos-muito-confortavel-1369233304", "property_type": "Apartamentos", "modifiedAt": "13/01/2025 08:05:31", "active": true}, "geometry": {"type": "Point", "coordinates": [-39.729325, -5.123683]}}, {"type": "Feature", "properties": {"id": 344, "title": "Casa pra alugar ", "price": "R$ 400", "address": "Rua Lourival Bandeira de Melo, Ibura, Recife", "url": "https://pe.olx.com.br/grande-recife/imoveis/casa-pra-alugar-1369199329", "property_type": "Casas", "modifiedAt": "13/01/2025 08:05:31", "active": true}, "geometry": {"type": "Point", "coordinates": [-34.9306763, -8.1077142]}}, {"type": "Feature", "properties": {"id": 345, "title": "Apartamento para venda em ótima localização", "price": "R$ 550", "address": "Rua Cantor Tim Maia, Barro, Recife", "url": "https://pe.olx.com.br/grande-recife/imoveis/apartamento-para-venda-em-otima-localizacao-1369189438", "property_type": "Apartamentos", "modifiedAt": "13/01/2025 08:05:31", "active": true}, "geometry": {"type": "Point", "coordinates": [-38.773213600000005, -7.1713587]}}, {"type": "Feature", "properties": {"id": 346, "title": "Casa em San Martin para alugar em condomínio.", "price": "R$ 750", "address": "Rua Dom Expedito Lopes, Mustardinha, Recife", "url": "https://pe.olx.com.br/grande-recife/imoveis/casa-em-san-martin-para-alugar-em-condominio-1369175228", "property_type": "Casas", "modifiedAt": "13/01/2025 08:05:31", "active": true}, "geometry": {"type": "Point", "coordinates": [-34.9241904, -8.0729113]}}, {"type": "Feature", "properties": {"id": 347, "title": "Alugo casa 1º andar - Poco da Panela", "price": "R$ 800", "address": "Rua Marechal Bittencourt, Poço, Recife", "url": "https://pe.olx.com.br/grande-recife/imoveis/alugo-casa-1-andar-poco-da-panela-1369107834", "property_type": "Casas", "modifiedAt": "13/01/2025 08:05:31", "active": true}, "geometry": {"type": "Point", "coordinates": [-39.1620139375, -12.3301642]}}, {"type": "Feature", "properties": {"id": 348, "title": "Imóvel para locação em ótima localização", "price": "R$ 700", "address": "Rua Mundaú, COHAB, Recife", "url": "https://pe.olx.com.br/grande-recife/imoveis/imovel-para-locacao-em-otima-localizacao-1369104912", "property_type": "Casas", "modifiedAt": "13/01/2025 08:05:31", "active": true}, "geometry": {"type": "Point", "coordinates": [-46.6256505, -20.7094564]}}, {"type": "Feature", "properties": {"id": 349, "title": "Alugo quarto no derby ", "price": "R$ 600", "address": "Rua Manoel Caetano, Derby, Recife", "url": "https://pe.olx.com.br/grande-recife/imoveis/alugo-quarto-no-derby-1369101687", "property_type": "Apartamentos", "modifiedAt": "13/01/2025 08:05:31", "active": true}, "geometry": {"type": "Point", "coordinates": [-34.9009161, -8.0539976]}}, {"type": "Feature", "properties": {"id": 350, "title": "Locando um quarto de solteiro .", "price": "R$ 900", "address": "Rua José Bonifácio, Torre, Recife", "url": "https://pe.olx.com.br/grande-recife/imoveis/locando-um-quarto-de-solteiro-1369091661", "property_type": "Aluguel de quartos", "modifiedAt": "13/01/2025 08:05:31", "active": true}, "geometry": {"type": "Point", "coordinates": [-34.9058767, -8.0465455]}}, {"type": "Feature", "properties": {"id": 351, "title": "Flat em gravata", "price": "R$ 200", "address": "Rua Dias D'Avila, Várzea, Recife", "url": "https://pe.olx.com.br/grande-recife/imoveis/flat-em-gravata-1369089180", "property_type": "Aluguel de quartos", "modifiedAt": "13/01/2025 08:05:32", "active": true}, "geometry": {"type": "Point", "coordinates": [-34.9593785, -8.0338123]}}, {"type": "Feature", "properties": {"id": 352, "title": "Alugo kitnet no Rosarinho, próximo a Av norte ", "price": "R$ 500", "address": "Rua Treze de Junho, Rosarinho, Recife", "url": "https://pe.olx.com.br/grande-recife/imoveis/alugo-kitnet-no-rosarinho-proximo-a-av-norte-1369057059", "property_type": "Casas", "modifiedAt": "13/01/2025 08:05:32", "active": true}, "geometry": {"type": "Point", "coordinates": [-34.8972601, -8.0303832]}}, {"type": "Feature", "properties": {"id": 353, "title": "Quarto em apartamento entrada em Março! ", "price": "R$ 660", "address": "Rua Coronel Djalma Leite, Várzea, Recife", "url": "https://pe.olx.com.br/grande-recife/imoveis/quarto-em-apartamento-entrada-em-marco-1369034674", "property_type": "Apartamentos", "modifiedAt": "13/01/2025 08:05:32", "active": true}, "geometry": {"type": "Point", "coordinates": [-34.9455311, -8.0441385]}}, {"type": "Feature", "properties": {"id": 354, "title": "Quarto para alugar", "price": "R$ 410", "address": "Avenida Professor Moraes Rego, Cidade Universitária, Recife", "url": "https://pe.olx.com.br/grande-recife/imoveis/quarto-para-alugar-1364603180", "property_type": "Aluguel de quartos", "modifiedAt": "13/01/2025 08:05:32", "active": true}, "geometry": {"type": "Point", "coordinates": [-43.227958300000004, -22.8558233]}}, {"type": "Feature", "properties": {"id": 355, "title": "Imóvel para aluguel tem 100 metros quadrados com 2 quartos em Mangueira - Recife - PE", "price": "R$ 650", "address": "Rua Tanguará, Mangueira, Recife", "url": "https://pe.olx.com.br/grande-recife/imoveis/imovel-para-aluguel-tem-100-metros-quadrados-com-2-quartos-em-mangueira-recife-pe-1368027758", "property_type": "Casas", "modifiedAt": "13/01/2025 08:05:32", "active": true}, "geometry": {"type": "Point", "coordinates": [-43.0699683, -22.830895]}}, {"type": "Feature", "properties": {"id": 356, "title": "Alugo Kitnet, Avenida Recife R$700 (TUDO INCLUSO)", "price": "R$ 700", "address": "Avenida Recife, Areias, Recife", "url": "https://pe.olx.com.br/grande-recife/imoveis/alugo-kitnet-avenida-recife-r-700-tudo-incluso-1338594301", "property_type": "Apartamentos", "modifiedAt": "13/01/2025 08:05:32", "active": true}, "geometry": {"type": "Point", "coordinates": [-44.692065, -22.581325]}}, {"type": "Feature", "properties": {"id": 357, "title": "Aluguo excelentes quartos suítes em Boa Viagem", "price": "R$ 900", "address": "Rua João Dias Martins, Boa Viagem, Recife", "url": "https://pe.olx.com.br/grande-recife/imoveis/aluguo-excelentes-quartos-suites-em-boa-viagem-1327822077", "property_type": "Aluguel de quartos", "modifiedAt": "13/01/2025 08:05:32", "active": true}, "geometry": {"type": "Point", "coordinates": [-39.727005500000004, -5.1261877]}}, {"type": "Feature", "properties": {"id": 358, "title": "QUARTO em BOA VIAGEM - Mestrandos Doutorandos Pós Graduação ", "price": "R$ 900", "address": "Rua Luiz de Faria Barbosa, Boa Viagem, Recife", "url": "https://pe.olx.com.br/grande-recife/imoveis/quarto-em-boa-viagem-mestrandos-doutorandos-pos-graduacao-1237954991", "property_type": "Aluguel de quartos", "modifiedAt": "13/01/2025 08:05:32", "active": true}, "geometry": {"type": "Point", "coordinates": [-39.72600550000001, -5.1261877]}}, {"type": "Feature", "properties": {"id": 359, "title": "QUARTO BOA VIAGEM MESTRADO DOUTORADO UFPE UFRPE UNICAP FPS ESTÁCIO UniFBV ", "price": "R$ 900", "address": "Rua Luiz de Faria Barbosa, Boa Viagem, Recife", "url": "https://pe.olx.com.br/grande-recife/imoveis/quarto-boa-viagem-mestrado-doutorado-ufpe-ufrpe-unicap-fps-estacio-unifbv-1220073710", "property_type": "Aluguel de quartos", "modifiedAt": "13/01/2025 08:05:32", "active": true}, "geometry": {"type": "Point", "coordinates": [-39.72500550000001, -5.1261877]}}, {"type": "Feature", "properties": {"id": 360, "title": "Alugo Quartos com banheiro individual", "price": "R$ 450", "address": "Rua São Gonçalo, Boa Vista, Recife", "url": "https://pe.olx.com.br/grande-recife/imoveis/alugo-quartos-com-banheiro-individual-1367750450", "property_type": "Aluguel de quartos", "modifiedAt": "13/01/2025 08:05:33", "active": true}, "geometry": {"type": "Point", "coordinates": [-34.8895415, -8.0648216]}}, {"type": "Feature", "properties": {"id": 361, "title": "Aluguel de quarto na boa vista 750$ - somente mulheres!", "price": "R$ 750", "address": "Rua Gervásio Pires, Boa Vista, Recife", "url": "https://pe.olx.com.br/grande-recife/imoveis/aluguel-de-quarto-na-boa-vista-750-somente-mulheres-1367741639", "property_type": "Aluguel de quartos", "modifiedAt": "13/01/2025 08:05:33", "active": true}, "geometry": {"type": "Point", "coordinates": [-34.884357400000006, -8.0595062]}}, {"type": "Feature", "properties": {"id": 362, "title": "Alugo kitnet em Coqueiral ", "price": "R$ 350", "address": "Rua Cruz das Graças, Coqueiral, Recife", "url": "https://pe.olx.com.br/grande-recife/imoveis/alugo-kitnet-em-coqueiral-1367736007", "property_type": "Casas", "modifiedAt": "13/01/2025 08:05:33", "active": true}, "geometry": {"type": "Point", "coordinates": [-45.4409829, -21.1898365]}}, {"type": "Feature", "properties": {"id": 363, "title": "Quartos mobiliados em Recife Pe campo grande perto de tudo!! Taxas inclusas", "price": "R$ 600", "address": "Avenida Luís Correia de Brito, Campo Grande, Recife", "url": "https://pe.olx.com.br/grande-recife/imoveis/quartos-mobiliados-em-recife-pe-campo-grande-perto-de-tudo-taxas-inclusas-1367619820", "property_type": "Aluguel de quartos", "modifiedAt": "13/01/2025 08:05:33", "active": true}, "geometry": {"type": "Point", "coordinates": [-34.8734969, -8.0204211]}}, {"type": "Feature", "properties": {"id": 364, "title": "kitnet Duplex R$600,00 ( tudo incluso)", "price": "R$ 600", "address": "Travessa Paraguassu, Zumbi, Recife", "url": "https://pe.olx.com.br/grande-recife/imoveis/kitnet-duplex-r-600-00-tudo-incluso-1367571427", "property_type": "Casas", "modifiedAt": "13/01/2025 08:05:33", "active": true}, "geometry": {"type": "Point", "coordinates": [-43.1758609, -22.8212784]}}, {"type": "Feature", "properties": {"id": 365, "title": "Aluga se", "price": "R$ 650", "address": "Rua Córrego da Areia, Macaxeira, Recife", "url": "https://pe.olx.com.br/grande-recife/imoveis/aluga-se-1367433147", "property_type": "Casas", "modifiedAt": "13/01/2025 08:05:33", "active": true}, "geometry": {"type": "Point", "coordinates": [-34.9318866, -8.0071599]}}, {"type": "Feature", "properties": {"id": 366, "title": "Casa no barro.em frete a estação 700 ", "price": "R$ 700", "address": "Rua Matelândia, Barro, Recife", "url": "https://pe.olx.com.br/grande-recife/imoveis/casa-no-barro-em-frete-a-estacao-700-1367387371", "property_type": "Aluguel de quartos", "modifiedAt": "13/01/2025 08:05:33", "active": true}, "geometry": {"type": "Point", "coordinates": [-38.77221360000001, -7.1713587]}}, {"type": "Feature", "properties": {"id": 367, "title": "Casa Tamandaré por temporada ", "price": "R$ 250", "address": "Rua dos Navegantes, Boa Viagem, Recife", "url": "https://pe.olx.com.br/grande-recife/imoveis/casa-tamandare-por-temporada-1351467364", "property_type": "Casas", "modifiedAt": "13/01/2025 08:05:33", "active": true}, "geometry": {"type": "Point", "coordinates": [-39.736778, -5.130956]}}, {"type": "Feature", "properties": {"id": 368, "title": "ALUGO APT NA ILHA DE ITAMARACÁ 850,00", "price": "R$ 850", "address": "Rua Ipojuca, Areias, Recife", "url": "https://pe.olx.com.br/grande-recife/imoveis/alugo-apt-na-ilha-de-itamaraca-850-00-1367295061", "property_type": "Apartamentos", "modifiedAt": "13/01/2025 08:05:33", "active": true}, "geometry": {"type": "Point", "coordinates": [-44.6965127, -22.5800929]}}, {"type": "Feature", "properties": {"id": 369, "title": "Alugo casa no Ibura", "price": "R$ 750", "address": "Avenida Boa Viagem, Boa Viagem, Recife", "url": "https://pe.olx.com.br/grande-recife/imoveis/alugo-casa-no-ibura-1367273355", "property_type": "Casas", "modifiedAt": "13/01/2025 08:05:33", "active": true}, "geometry": {"type": "Point", "coordinates": [-39.878531, -5.154088]}}, {"type": "Feature", "properties": {"id": 370, "title": "Quarto compartilhado que dividi com outras meninas", "price": "R$ 400", "address": "Rua Dona Maria Augusta Nogueira, Bongi, Recife", "url": "https://pe.olx.com.br/grande-recife/imoveis/quarto-compartilhado-que-dividi-com-outras-meninas-1367133370", "property_type": "Aluguel de quartos", "modifiedAt": "13/01/2025 08:05:33", "active": true}, "geometry": {"type": "Point", "coordinates": [-34.9225239, -8.065504]}}, {"type": "Feature", "properties": {"id": 371, "title": "Um Quarto Grande", "price": "R$ 350", "address": "Rua Maria Amália, Macaxeira, Recife", "url": "https://pe.olx.com.br/grande-recife/imoveis/um-quarto-grande-1369303180", "property_type": "Aluguel de quartos", "modifiedAt": "13/01/2025 08:05:33", "active": true}, "geometry": {"type": "Point", "coordinates": [-34.9322426, -8.0086071]}}, {"type": "Feature", "properties": {"id": 372, "title": "Kitnet mobiliado ", "price": "R$ 1.000", "address": "Recife, Imbiribeira", "url": "https://pe.olx.com.br/grande-recife/imoveis/kitnet-mobiliado-1343262425", "property_type": "Casas", "modifiedAt": "13/01/2025 08:05:33", "active": true}, "geometry": {"type": "Point", "coordinates": [-34.9075129, -8.0902049]}}, {"type": "Feature", "properties": {"id": 373, "title": "Aluguel de quarto ", "price": "R$ 700", "address": "Rua Dom Estevão Brioso, Boa Viagem, Recife", "url": "https://pe.olx.com.br/grande-recife/imoveis/aluguel-de-quarto-1367064155", "property_type": "Aluguel de quartos", "modifiedAt": "13/01/2025 08:05:33", "active": true}, "geometry": {"type": "Point", "coordinates": [-39.72400550000001, -5.1261877]}}, {"type": "Feature", "properties": {"id": 374, "title": "Apartamento residencial locação. ", "price": "R$ 1.000", "address": "Rua Rio Solimões, Areias, Recife", "url": "https://pe.olx.com.br/grande-recife/imoveis/apartamento-residencial-locacao-1367055354", "property_type": "Apartamentos", "modifiedAt": "13/01/2025 08:05:33", "active": true}, "geometry": {"type": "Point", "coordinates": [-44.6955127, -22.5800929]}}, {"type": "Feature", "properties": {"id": 375, "title": "Casa pra Alugar ", "price": "R$ 700", "address": "Rua Mário Albuquerque Cavalcante, Santo Amaro, Recife", "url": "https://pe.olx.com.br/grande-recife/imoveis/casa-pra-alugar-1369243049", "property_type": "Casas", "modifiedAt": "13/01/2025 08:05:33", "active": true}, "geometry": {"type": "Point", "coordinates": [-38.677042, -12.630378]}}, {"type": "Feature", "properties": {"id": 376, "title": "Quarto Boa Viagem ", "price": "R$ 770", "address": "Rua Jornal Vanguarda, Boa Viagem, Recife", "url": "https://pe.olx.com.br/grande-recife/imoveis/quarto-boa-viagem-1367005351", "property_type": "Aluguel de quartos", "modifiedAt": "13/01/2025 08:05:33", "active": true}, "geometry": {"type": "Point", "coordinates": [-39.73733300000001, -5.117292]}}, {"type": "Feature", "properties": {"id": 377, "title": "Casa 2 quartos jardim São Paulo ", "price": "R$ 750", "address": "Rua Agostinho Barbalho, Jardim São Paulo, Recife", "url": "https://pe.olx.com.br/grande-recife/imoveis/casa-2-quartos-jardim-sao-paulo-1366973352", "property_type": "Casas", "modifiedAt": "13/01/2025 08:05:34", "active": true}, "geometry": {"type": "Point", "coordinates": [-46.6167979, -23.4910142]}}, {"type": "Feature", "properties": {"id": 378, "title": "Aluguel 900$ Avenida Beberibe/Porto da Madeira, contato: *", "price": "R$ 900", "address": "Rua Benjamin Fonseca, Porto da Madeira, Recife", "url": "https://pe.olx.com.br/grande-recife/imoveis/aluguel-900-avenida-beberibe-porto-da-madeira-contato-1366921877", "property_type": "Casas", "modifiedAt": "13/01/2025 08:05:34", "active": true}, "geometry": {"type": "Point", "coordinates": [-34.8897119, -8.0108791]}}, {"type": "Feature", "properties": {"id": 379, "title": "ALUGUEL QUARTO PARA SEXO FEMININO", "price": "R$ 800", "address": "Rua José Bonifácio, Torre, Recife", "url": "https://pe.olx.com.br/grande-recife/imoveis/aluguel-quarto-para-sexo-feminino-1369053705", "property_type": "Aluguel de quartos", "modifiedAt": "13/01/2025 08:05:34", "active": true}, "geometry": {"type": "Point", "coordinates": [-34.9048767, -8.0465455]}}, {"type": "Feature", "properties": {"id": 380, "title": "Alugo casa dois quartos ", "price": "R$ 600", "address": "Travessa Jundiaí, Jardim São Paulo, Recife", "url": "https://pe.olx.com.br/grande-recife/imoveis/alugo-casa-dois-quartos-1366823100", "property_type": "Casas", "modifiedAt": "13/01/2025 08:05:34", "active": true}, "geometry": {"type": "Point", "coordinates": [-46.615797900000004, -23.4910142]}}, {"type": "Feature", "properties": {"id": 381, "title": "Aluga-se Casa em Jd. Uchôa - Areias", "price": "R$ 600", "address": "Rua Locutor Abílio de Castro, Areias, Recife", "url": "https://pe.olx.com.br/grande-recife/imoveis/aluga-se-casa-em-jd-uchoa-areias-1366820410", "property_type": "Casas", "modifiedAt": "13/01/2025 08:05:34", "active": true}, "geometry": {"type": "Point", "coordinates": [-44.694512700000004, -22.5800929]}}, {"type": "Feature", "properties": {"id": 382, "title": "Casa Tamandare janeiro ", "price": "R$ 1.000", "address": "Rua do Futuro, Graças, Recife", "url": "https://pe.olx.com.br/grande-recife/imoveis/casa-tamandare-janeiro-1366814315", "property_type": "Casas", "modifiedAt": "13/01/2025 08:05:34", "active": true}, "geometry": {"type": "Point", "coordinates": [-34.8998623, -8.0410598]}}, {"type": "Feature", "properties": {"id": 383, "title": "Kitnet Boa Vista Recife", "price": "R$ 999", "address": "Avenida Manoel Borba, Soledade, Recife", "url": "https://pe.olx.com.br/grande-recife/imoveis/kitnet-boa-vista-recife-1363645447", "property_type": "Casas", "modifiedAt": "13/01/2025 08:05:34", "active": true}, "geometry": {"type": "Point", "coordinates": [-52.5089157, -28.8272467]}}, {"type": "Feature", "properties": {"id": 384, "title": "Alugo kitnet 1000,00 valor incluiu consumo de água.", "price": "R$ 1.000", "address": "Rua Arnóbio Marques, Santo Amaro, Recife", "url": "https://pe.olx.com.br/grande-recife/imoveis/alugo-kitnet-1000-00-valor-incluiu-consumo-de-agua-1366790933", "property_type": "Apartamentos", "modifiedAt": "13/01/2025 08:05:34", "active": true}, "geometry": {"type": "Point", "coordinates": [-38.713263000000005, -12.54493]}}, {"type": "Feature", "properties": {"id": 385, "title": "Apartamento na Caxangá com 3 quartos. Pacote completo R$ 1.400,00", "price": "R$ 950", "address": "Avenida Joaquim Ribeiro, Caxangá, Recife", "url": "https://pe.olx.com.br/grande-recife/imoveis/apartamento-na-caxanga-com-3-quartos-pacote-completo-r-1-400-00-1366761851", "property_type": "Apartamentos", "modifiedAt": "13/01/2025 08:05:34", "active": true}, "geometry": {"type": "Point", "coordinates": [-34.9596924, -8.028029]}}, {"type": "Feature", "properties": {"id": 386, "title": "Casa para escritório no derby ", "price": "R$ 1.000", "address": "Rua Feliciano Gomes, Derby, Recife", "url": "https://pe.olx.com.br/grande-recife/imoveis/casa-para-escritorio-no-derby-1366682316", "property_type": "Casas", "modifiedAt": "13/01/2025 08:05:34", "active": true}, "geometry": {"type": "Point", "coordinates": [-34.8993223, -8.0552069]}}, {"type": "Feature", "properties": {"id": 387, "title": "Casa para alugar em Dois Unidos (Última unidade).", "price": "R$ 500", "address": "Rua Manoel Lopes de Albuquerque, Dois Unidos, Recife", "url": "https://pe.olx.com.br/grande-recife/imoveis/casa-para-alugar-em-dois-unidos-ultima-unidade-1366629918", "property_type": "Casas", "modifiedAt": "13/01/2025 08:05:34", "active": true}, "geometry": {"type": "Point", "coordinates": [-34.9140126, -7.9934797]}}, {"type": "Feature", "properties": {"id": 388, "title": "Estou procurando casa pra alugar ", "price": "R$ 600", "address": "Rua Zeferino Agra, Água Fria, Recife", "url": "https://pe.olx.com.br/grande-recife/imoveis/estou-procurando-casa-pra-alugar-1368727462", "property_type": "Aluguel de quartos", "modifiedAt": "13/01/2025 08:05:34", "active": true}, "geometry": {"type": "Point", "coordinates": [-38.762074, -11.877981]}}, {"type": "Feature", "properties": {"id": 389, "title": "Alugo casa, estucada e com gesso, toda na cerâmica, ", "price": "R$ 800", "address": "Rua Arandu, Morro da Conceição, Recife", "url": "https://pe.olx.com.br/grande-recife/imoveis/alugo-casa-estucada-e-com-gesso-toda-na-ceramica-1365411599", "property_type": "Casas", "modifiedAt": "13/01/2025 08:05:34", "active": true}, "geometry": {"type": "Point", "coordinates": [-43.1815222, -22.8991556]}}, {"type": "Feature", "properties": {"id": 390, "title": "Alugo kitnet em Coqueiral ", "price": "R$ 350", "address": "Recife, Santo Amaro", "url": "https://pe.olx.com.br/grande-recife/imoveis/alugo-kitnet-em-coqueiral-1366576447", "property_type": "Apartamentos", "modifiedAt": "13/01/2025 08:05:34", "active": true}, "geometry": {"type": "Point", "coordinates": [-35.1115785, -8.6174825]}}, {"type": "Feature", "properties": {"id": 391, "title": "Casa prox da estação Ipiranga", "price": "R$ 500", "address": "Recife, Afogados", "url": "https://pe.olx.com.br/grande-recife/imoveis/casa-prox-da-estacao-ipiranga-1368586908", "property_type": "Casas", "modifiedAt": "13/01/2025 08:05:34", "active": true}, "geometry": {"type": "Point", "coordinates": [NaN, NaN]}}, {"type": "Feature", "properties": {"id": 392, "title": "Imóvel para aluguel tem 25 metros quadrados com 1 quarto em Soledade - Recife - PE", "price": "R$ 200", "address": "Rua das Ninfas, Soledade, Recife", "url": "https://pe.olx.com.br/grande-recife/imoveis/imovel-para-aluguel-tem-25-metros-quadrados-com-1-quarto-em-soledade-recife-pe-1366536632", "property_type": "Apartamentos", "modifiedAt": "13/01/2025 08:05:34", "active": true}, "geometry": {"type": "Point", "coordinates": [-52.507915700000005, -28.8272467]}}, {"type": "Feature", "properties": {"id": 393, "title": "Casa em com 2 quartos", "price": "R$ 800", "address": "Rua Mangericão, Nova Descoberta, Recife", "url": "https://pe.olx.com.br/grande-recife/imoveis/casa-em-com-2-quartos-1361243051", "property_type": "Casas", "modifiedAt": "13/01/2025 08:05:34", "active": true}, "geometry": {"type": "Point", "coordinates": [-35.216647, -5.825485]}}, {"type": "Feature", "properties": {"id": 394, "title": "Quarto para alugar em casa amarela", "price": "R$ 600", "address": "Rua Raimundo Freixeiras, Casa Amarela, Recife", "url": "https://pe.olx.com.br/grande-recife/imoveis/quarto-para-alugar-em-casa-amarela-1363389251", "property_type": "Apartamentos", "modifiedAt": "13/01/2025 08:05:34", "active": true}, "geometry": {"type": "Point", "coordinates": [-34.9184909, -8.0290972]}}, {"type": "Feature", "properties": {"id": 395, "title": "Casa moderna com churrasqueira e área de lazer", "price": "R$ 500", "address": "Rua João Coelho Pereira, Coqueiral, Recife", "url": "https://pe.olx.com.br/grande-recife/imoveis/casa-moderna-com-churrasqueira-e-area-de-lazer-1361158471", "property_type": "Casas", "modifiedAt": "13/01/2025 08:05:34", "active": true}, "geometry": {"type": "Point", "coordinates": [-45.447235, -21.192079]}}, {"type": "Feature", "properties": {"id": 396, "title": "Área externa ", "price": "R$ 300", "address": "Rua Barelândia, Ilha Joana Bezerra, Recife", "url": "https://pe.olx.com.br/grande-recife/imoveis/area-externa-1361150745", "property_type": "Casas", "modifiedAt": "13/01/2025 08:05:34", "active": true}, "geometry": {"type": "Point", "coordinates": [-34.8989162, -8.0723958]}}, {"type": "Feature", "properties": {"id": 397, "title": "Apartamento com ótima localização", "price": "R$ 750", "address": "Rua São Nicolau, Ipsep, Recife", "url": "https://pe.olx.com.br/grande-recife/imoveis/apartamento-com-otima-localizacao-1353872744", "property_type": "Apartamentos", "modifiedAt": "13/01/2025 08:05:35", "active": true}, "geometry": {"type": "Point", "coordinates": [-34.9237353, -8.1064714]}}, {"type": "Feature", "properties": {"id": 398, "title": "Quem souber onde tem casa ou apartamento pra aluga no cabo", "price": "R$ 500", "address": "Avenida Manoel Gonçalves da Luz, Mustardinha, Recife", "url": "https://pe.olx.com.br/grande-recife/imoveis/quem-souber-onde-tem-casa-ou-apartamento-pra-aluga-no-cabo-1363201666", "property_type": "Apartamentos", "modifiedAt": "13/01/2025 08:05:35", "active": true}, "geometry": {"type": "Point", "coordinates": [-34.9176395, -8.0694628]}}, {"type": "Feature", "properties": {"id": 399, "title": "Apartamento para aluguel Vila Natal ( condomínio pitombeiras) ", "price": "R$ 790", "address": "Rua Alcântara, Tejipió, Recife", "url": "https://pe.olx.com.br/grande-recife/imoveis/apartamento-para-aluguel-vila-natal-condominio-pitombeiras-1361021747", "property_type": "Apartamentos", "modifiedAt": "13/01/2025 08:05:35", "active": true}, "geometry": {"type": "Point", "coordinates": [-34.9633566, -8.0894152]}}, {"type": "Feature", "properties": {"id": 400, "title": "Suite semi mobiliada Campo Grande", "price": "R$ 850", "address": "Rua Hermílio Gomes, Campo Grande, Recife", "url": "https://pe.olx.com.br/grande-recife/imoveis/suite-semi-mobiliada-campo-grande-1360982443", "property_type": "Aluguel de quartos", "modifiedAt": "13/01/2025 08:05:35", "active": true}, "geometry": {"type": "Point", "coordinates": [-34.8747345, -8.0326576]}}, {"type": "Feature", "properties": {"id": 401, "title": "Alugo casa Ponta de Pedras com piscina", "price": "R$ 300", "address": "Rua Padre Cabral, Boa Viagem, Recife", "url": "https://pe.olx.com.br/grande-recife/imoveis/alugo-casa-ponta-de-pedras-com-piscina-1296410805", "property_type": "Casas", "modifiedAt": "13/01/2025 08:05:35", "active": true}, "geometry": {"type": "Point", "coordinates": [-39.72300550000001, -5.1261877]}}, {"type": "Feature", "properties": {"id": 402, "title": "Kitnetes em Afogados R$ 650,00", "price": "R$ 650", "address": "Rua Mariápolis, Afogados, Recife", "url": "https://pe.olx.com.br/grande-recife/imoveis/kitnetes-em-afogados-r-650-00-1360916655", "property_type": "Apartamentos", "modifiedAt": "13/01/2025 08:05:35", "active": true}, "geometry": {"type": "Point", "coordinates": [-34.9133988, -8.0827254]}}, {"type": "Feature", "properties": {"id": 403, "title": "Dividir apartamento ", "price": "R$ 1.000", "address": "Rua da Aurora, Santo Amaro, Recife", "url": "https://pe.olx.com.br/grande-recife/imoveis/dividir-apartamento-1360902505", "property_type": "Apartamentos", "modifiedAt": "13/01/2025 08:05:35", "active": true}, "geometry": {"type": "Point", "coordinates": [-38.7050448, -12.5519686]}}, {"type": "Feature", "properties": {"id": 404, "title": "Kitnet conchegante para alugar.agua incluso.otima localização ", "price": "R$ 900", "address": "Rua Dona Elvira, Encruzilhada, Recife", "url": "https://pe.olx.com.br/grande-recife/imoveis/kitnet-conchegante-para-alugar-agua-incluso-otima-localizacao-1360897241", "property_type": "Apartamentos", "modifiedAt": "13/01/2025 08:05:35", "active": true}, "geometry": {"type": "Point", "coordinates": [-40.907204, -15.529207]}}, {"type": "Feature", "properties": {"id": 405, "title": "Kitnet ótima localização 900 água incluso", "price": "R$ 900", "address": "Rua Dona Elvira, Encruzilhada, Recife", "url": "https://pe.olx.com.br/grande-recife/imoveis/kitnet-otima-localizacao-900-agua-incluso-1360894571", "property_type": "Apartamentos", "modifiedAt": "13/01/2025 08:05:35", "active": true}, "geometry": {"type": "Point", "coordinates": [-40.906204, -15.529207]}}, {"type": "Feature", "properties": {"id": 406, "title": "Aluga-se casa para temporada em Tamandaré ", "price": "R$ 0", "address": "Estrada de Belém, Encruzilhada, Recife", "url": "https://pe.olx.com.br/grande-recife/imoveis/aluga-se-casa-para-temporada-em-tamandare-1336296811", "property_type": "Casas", "modifiedAt": "13/01/2025 08:05:35", "active": true}, "geometry": {"type": "Point", "coordinates": [-40.909007, -15.5317004]}}, {"type": "Feature", "properties": {"id": 407, "title": "Aluguel de casa ", "price": "R$ 500", "address": "Rua Doutor Elias Gomes, Campina do Barreto, Recife", "url": "https://pe.olx.com.br/grande-recife/imoveis/aluguel-de-casa-1360809199", "property_type": "Aluguel de quartos", "modifiedAt": "13/01/2025 08:05:35", "active": true}, "geometry": {"type": "Point", "coordinates": [-34.8795343, -8.021305]}}, {"type": "Feature", "properties": {"id": 408, "title": "ALUGI KITNET", "price": "R$ 650", "address": "Avenida Norte Miguel Arraes de Alencar, Santo Amaro, Recife", "url": "https://pe.olx.com.br/grande-recife/imoveis/alugi-kitnet-1360760570", "property_type": "Apartamentos", "modifiedAt": "13/01/2025 08:05:35", "active": true}, "geometry": {"type": "Point", "coordinates": [-38.704044800000005, -12.5519686]}}, {"type": "Feature", "properties": {"id": 409, "title": "Quarto kitnet  ou comercial 350", "price": "R$ 350", "address": "Rua Miguel Calmon, Ibura, Recife", "url": "https://pe.olx.com.br/grande-recife/imoveis/quarto-kitnet-ou-comercial-350-1360590024", "property_type": "Aluguel de quartos", "modifiedAt": "13/01/2025 08:05:35", "active": true}, "geometry": {"type": "Point", "coordinates": [-34.9377358, -8.1282684]}}, {"type": "Feature", "properties": {"id": 410, "title": "Apartamento no local familiar e calmo.", "price": "R$ 800", "address": "Rua Brejolândia, Jardim São Paulo, Recife", "url": "https://pe.olx.com.br/grande-recife/imoveis/apartamento-no-local-familiar-e-calmo-1360537530", "property_type": "Apartamentos", "modifiedAt": "13/01/2025 08:05:35", "active": true}, "geometry": {"type": "Point", "coordinates": [-46.614797900000006, -23.4910142]}}, {"type": "Feature", "properties": {"id": 411, "title": "Alugo apartamento Rio Doce 3 quartos na  4a  etapa R$: 600 ", "price": "R$ 600", "address": "Praça da Independência, Santo Antônio, Recife", "url": "https://pe.olx.com.br/grande-recife/imoveis/alugo-apartamento-rio-doce-3-quartos-na-4a-etapa-r-600-1257970482", "property_type": "Apartamentos", "modifiedAt": "13/01/2025 08:05:35", "active": true}, "geometry": {"type": "Point", "coordinates": [-37.9452203, -7.0124164]}}, {"type": "Feature", "properties": {"id": 412, "title": "Disponível na Ilha de Itamaraca", "price": "R$ 1.000", "address": "Avenida Liberdade, Sancho, Recife", "url": "https://pe.olx.com.br/grande-recife/imoveis/disponivel-na-ilha-de-itamaraca-1360381086", "property_type": "Casas", "modifiedAt": "13/01/2025 08:05:35", "active": true}, "geometry": {"type": "Point", "coordinates": [-34.9579991, -8.0830782]}}, {"type": "Feature", "properties": {"id": 413, "title": "QUITINETE EM TEJIPIÓ", "price": "R$ 420", "address": "Rua Soldado Joaquim Xavier, Tejipió, Recife", "url": "https://pe.olx.com.br/grande-recife/imoveis/quitinete-em-tejipio-1360357269", "property_type": "Apartamentos", "modifiedAt": "13/01/2025 08:05:35", "active": true}, "geometry": {"type": "Point", "coordinates": [-34.9630572, -8.0905221]}}, {"type": "Feature", "properties": {"id": 414, "title": "Imóvel para aluguel com 35 metros quadrados com 1 quarto em Arruda - Recife - PE", "price": "R$ 700", "address": "Rua do Triunfo, Arruda, Recife", "url": "https://pe.olx.com.br/grande-recife/imoveis/imovel-para-aluguel-com-35-metros-quadrados-com-1-quarto-em-arruda-recife-pe-1360324963", "property_type": "Apartamentos", "modifiedAt": "13/01/2025 08:05:35", "active": true}, "geometry": {"type": "Point", "coordinates": [-34.8886895, -8.0251593]}}, {"type": "Feature", "properties": {"id": 415, "title": "Aluga-se kitnet na imbiribeira 10mint andando da lagoa do araçá", "price": "R$ 450", "address": "Rua Nossa Senhora do Carmo, Imbiribeira, Recife", "url": "https://pe.olx.com.br/grande-recife/imoveis/aluga-se-kitnet-na-imbiribeira-10mint-andando-da-lagoa-do-araca-1360313625", "property_type": "Casas", "modifiedAt": "13/01/2025 08:05:36", "active": true}, "geometry": {"type": "Point", "coordinates": [-34.9156974, -8.1006819]}}, {"type": "Feature", "properties": {"id": 416, "title": "SALA DE AULA LOCAÇÃO", "price": "R$ 100", "address": "Rua do Riachuelo, Boa Vista, Recife", "url": "https://pe.olx.com.br/grande-recife/imoveis/sala-de-aula-locacao-1360290561", "property_type": "Aluguel de quartos", "modifiedAt": "13/01/2025 08:05:36", "active": true}, "geometry": {"type": "Point", "coordinates": [-34.8809775, -8.0607874]}}, {"type": "Feature", "properties": {"id": 417, "title": "Casa aluga se na caxanga ", "price": "R$ 700", "address": "Rua Doutor Dustan de Carvalho Soares, Caxangá, Recife", "url": "https://pe.olx.com.br/grande-recife/imoveis/casa-aluga-se-na-caxanga-1360247800", "property_type": "Casas", "modifiedAt": "13/01/2025 08:05:36", "active": true}, "geometry": {"type": "Point", "coordinates": [-34.957501, -8.0263219]}}, {"type": "Feature", "properties": {"id": 418, "title": "Casa para alugar. 1 andar", "price": "R$ 600", "address": "Avenida Pernambuco, COHAB, Recife", "url": "https://pe.olx.com.br/grande-recife/imoveis/casa-para-alugar-1-andar-1360216868", "property_type": "Casas", "modifiedAt": "13/01/2025 08:05:36", "active": true}, "geometry": {"type": "Point", "coordinates": [-46.6246505, -20.7094564]}}, {"type": "Feature", "properties": {"id": 419, "title": "EXCELENTE CASA DE 42 METROS, LOCALIZADO EM AFOGADOS, BEM VENTILADA, PARA SEU CONFORTO. A C", "price": "R$ 450", "address": "Rua Cinco de Novembro, Afogados, Recife", "url": "https://pe.olx.com.br/grande-recife/imoveis/excelente-casa-de-42-metros-localizado-em-afogados-bem-ventilada-para-seu-conforto-a-c-1360146643", "property_type": "Casas", "modifiedAt": "13/01/2025 08:05:36", "active": true}, "geometry": {"type": "Point", "coordinates": [-34.936754, -8.056657]}}, {"type": "Feature", "properties": {"id": 420, "title": "Quarto em vila ", "price": "R$ 300", "address": "Rua Hermílio Gomes, Campo Grande, Recife", "url": "https://pe.olx.com.br/grande-recife/imoveis/quarto-em-vila-1360101035", "property_type": "Aluguel de quartos", "modifiedAt": "13/01/2025 08:05:36", "active": true}, "geometry": {"type": "Point", "coordinates": [-34.873734500000005, -8.0326576]}}, {"type": "Feature", "properties": {"id": 421, "title": "Alugo kitnet 1.000,00", "price": "R$ 1.000", "address": "Rua Arnóbio Marques, Santo Amaro, Recife", "url": "https://pe.olx.com.br/grande-recife/imoveis/alugo-kitnet-1-000-00-1359987461", "property_type": "Apartamentos", "modifiedAt": "13/01/2025 08:05:36", "active": true}, "geometry": {"type": "Point", "coordinates": [-38.71226300000001, -12.54493]}}, {"type": "Feature", "properties": {"id": 422, "title": "Alugar kitinet", "price": "R$ 800", "address": "Avenida Conde da Boa Vista, Boa Vista, Recife", "url": "https://pe.olx.com.br/grande-recife/imoveis/alugar-kitinet-1359974369", "property_type": "Apartamentos", "modifiedAt": "13/01/2025 08:05:36", "active": true}, "geometry": {"type": "Point", "coordinates": [-34.8951582, -8.0559724]}}, {"type": "Feature", "properties": {"id": 423, "title": "Sublocação de sala no Riomar Trade Center", "price": "R$ 450", "address": "Avenida República do Líbano, Pina, Recife", "url": "https://pe.olx.com.br/grande-recife/imoveis/sublocacao-de-sala-no-riomar-trade-center-1359938964", "property_type": "Aluguel de quartos", "modifiedAt": "13/01/2025 08:05:36", "active": true}, "geometry": {"type": "Point", "coordinates": [-34.8914819, -8.0881589]}}, {"type": "Feature", "properties": {"id": 424, "title": "quartos e vagas", "price": "R$ 330", "address": "Rua Dom Bosco, Boa Vista, Recife", "url": "https://pe.olx.com.br/grande-recife/imoveis/quartos-e-vagas-1121158421", "property_type": "Aluguel de quartos", "modifiedAt": "13/01/2025 08:05:36", "active": true}, "geometry": {"type": "Point", "coordinates": [-34.8953001, -8.0561297]}}, {"type": "Feature", "properties": {"id": 425, "title": "Quarto para moças que trabalham e estudam ", "price": "R$ 800", "address": "Rua João Fernandes Vieira, Boa Vista, Recife", "url": "https://pe.olx.com.br/grande-recife/imoveis/quarto-para-mocas-que-trabalham-e-estudam-1359789277", "property_type": "Aluguel de quartos", "modifiedAt": "13/01/2025 08:05:36", "active": true}, "geometry": {"type": "Point", "coordinates": [-34.8946539, -8.0520569]}}, {"type": "Feature", "properties": {"id": 426, "title": "Casa em itamaraca, quatro cantos.", "price": "R$ 600", "address": "Rua Luiza de Oliveira, Areias, Recife", "url": "https://pe.olx.com.br/grande-recife/imoveis/casa-em-itamaraca-quatro-cantos-1361881865", "property_type": "Casas", "modifiedAt": "13/01/2025 08:05:36", "active": true}, "geometry": {"type": "Point", "coordinates": [-44.69351270000001, -22.5800929]}}, {"type": "Feature", "properties": {"id": 427, "title": "Ponto comercial pra alugar ", "price": "R$ 800", "address": "Recife, Água Fria", "url": "https://pe.olx.com.br/grande-recife/imoveis/ponto-comercial-pra-alugar-1359768969", "property_type": "Casas", "modifiedAt": "13/01/2025 08:05:36", "active": true}, "geometry": {"type": "Point", "coordinates": [-34.8982347, -8.0169662]}}, {"type": "Feature", "properties": {"id": 428, "title": "Apartamento para alugar ", "price": "R$ 550", "address": "Rua Rio da Prata, Ibura, Recife", "url": "https://pe.olx.com.br/grande-recife/imoveis/apartamento-para-alugar-1359753627", "property_type": "Casas", "modifiedAt": "13/01/2025 08:05:36", "active": true}, "geometry": {"type": "Point", "coordinates": [-34.9394249, -8.1172396]}}, {"type": "Feature", "properties": {"id": 429, "title": "Casa para alugar ", "price": "R$ 500", "address": "Rua Subida do Platô, Macaxeira, Recife", "url": "https://pe.olx.com.br/grande-recife/imoveis/casa-para-alugar-1359748782", "property_type": "Casas", "modifiedAt": "13/01/2025 08:05:36", "active": true}, "geometry": {"type": "Point", "coordinates": [-34.9278894, -8.0099903]}}, {"type": "Feature", "properties": {"id": 430, "title": "Quartos p/ mulheres Boa Viagem", "price": "R$ 900", "address": "Rua Antônio Vicente, Boa Viagem, Recife", "url": "https://pe.olx.com.br/grande-recife/imoveis/quartos-p-mulheres-boa-viagem-1338733182", "property_type": "Aluguel de quartos", "modifiedAt": "13/01/2025 08:05:36", "active": true}, "geometry": {"type": "Point", "coordinates": [-39.722005500000016, -5.1261877]}}, {"type": "Feature", "properties": {"id": 431, "title": "Estou a procura de casa ur1 ur2 lagoa encantada!", "price": "R$ 500", "address": "Rua São Marcos, COHAB, Recife", "url": "https://pe.olx.com.br/grande-recife/imoveis/estou-a-procura-de-casa-ur1-ur2-lagoa-encantada-1359711028", "property_type": "Casas", "modifiedAt": "13/01/2025 08:05:36", "active": true}, "geometry": {"type": "Point", "coordinates": [-46.623650500000004, -20.7094564]}}, {"type": "Feature", "properties": {"id": 432, "title": "****ALUGO CASA COM PISCINA EM ITAMARACÁ***", "price": "R$ 900", "address": "Avenida Governador Agamenon Magalhães, Espinheiro, Recife", "url": "https://pe.olx.com.br/grande-recife/imoveis/alugo-casa-com-piscina-em-itamaraca-1359681187", "property_type": "Casas", "modifiedAt": "13/01/2025 08:05:36", "active": true}, "geometry": {"type": "Point", "coordinates": [-34.8911075, -8.0466829]}}, {"type": "Feature", "properties": {"id": 433, "title": "casa", "price": "R$ 450", "address": "Rua Rio das Contas, Ibura, Recife", "url": "https://pe.olx.com.br/grande-recife/imoveis/casa-1361562726", "property_type": "Casas", "modifiedAt": "13/01/2025 08:05:36", "active": true}, "geometry": {"type": "Point", "coordinates": [-34.9433128, -8.1118599]}}, {"type": "Feature", "properties": {"id": 434, "title": "ALUGO CASA EM TAMANDARÉ RÉVEILLON ", "price": "R$ 600", "address": "Rua Aristides Muniz, Boa Viagem, Recife", "url": "https://pe.olx.com.br/grande-recife/imoveis/alugo-casa-em-tamandare-reveillon-1356511401", "property_type": "Casas", "modifiedAt": "13/01/2025 08:05:36", "active": true}, "geometry": {"type": "Point", "coordinates": [-39.72100550000002, -5.1261877]}}, {"type": "Feature", "properties": {"id": 435, "title": "Aluga se casa na rua corrego da areia ", "price": "R$ 1.000", "address": "Recife, Nova Descoberta", "url": "https://pe.olx.com.br/grande-recife/imoveis/aluga-se-casa-na-rua-corrego-da-areia-1356448116", "property_type": "Casas", "modifiedAt": "13/01/2025 08:05:36", "active": true}, "geometry": {"type": "Point", "coordinates": [NaN, NaN]}}, {"type": "Feature", "properties": {"id": 436, "title": "Kit Net, em BV. Próx do aeroporto.", "price": "R$ 750", "address": "Rua Dez de Julho, Boa Viagem, Recife", "url": "https://pe.olx.com.br/grande-recife/imoveis/kit-net-em-bv-prox-do-aeroporto-1356344558", "property_type": "Apartamentos", "modifiedAt": "13/01/2025 08:05:36", "active": true}, "geometry": {"type": "Point", "coordinates": [-39.72000550000002, -5.1261877]}}, {"type": "Feature", "properties": {"id": 437, "title": "Prive com ótima localização", "price": "R$ 700", "address": "Rua Arabutã, Nova Descoberta, Recife", "url": "https://pe.olx.com.br/grande-recife/imoveis/prive-com-otima-localizacao-1356312477", "property_type": "Apartamentos", "modifiedAt": "13/01/2025 08:05:36", "active": true}, "geometry": {"type": "Point", "coordinates": [-35.1965475, -5.8269204]}}, {"type": "Feature", "properties": {"id": 438, "title": "Casa nova em Igarassu", "price": "R$ 500", "address": "Rua Rio Tinto, Linha do Tiro, Recife", "url": "https://pe.olx.com.br/grande-recife/imoveis/casa-nova-em-igarassu-1356268915", "property_type": "Casas", "modifiedAt": "13/01/2025 08:05:36", "active": true}, "geometry": {"type": "Point", "coordinates": [-34.907078, -8.0078647]}}, {"type": "Feature", "properties": {"id": 439, "title": "Suite para solteiros na avenida boa viagem.", "price": "R$ 600", "address": "Avenida Boa Viagem, Boa Viagem, Recife", "url": "https://pe.olx.com.br/grande-recife/imoveis/suite-para-solteiros-na-avenida-boa-viagem-1358284101", "property_type": "Aluguel de quartos", "modifiedAt": "13/01/2025 08:05:37", "active": true}, "geometry": {"type": "Point", "coordinates": [-39.877531000000005, -5.154088]}}, {"type": "Feature", "properties": {"id": 440, "title": "Quarto em cobertura de predio", "price": "R$ 700", "address": "Avenida Engenheiro Domingos Ferreira, Pina, Recife", "url": "https://pe.olx.com.br/grande-recife/imoveis/quarto-em-cobertura-de-predio-1356070884", "property_type": "Aluguel de quartos", "modifiedAt": "13/01/2025 08:05:37", "active": true}, "geometry": {"type": "Point", "coordinates": [-34.8864948, -8.0987132]}}, {"type": "Feature", "properties": {"id": 441, "title": "**melhor**Kit Net próx Av. Sá & Souza.", "price": "R$ 750", "address": "Rua Dez de Julho, Boa Viagem, Recife", "url": "https://pe.olx.com.br/grande-recife/imoveis/melhor-kit-net-prox-av-sa-souza-1356067820", "property_type": "Aluguel de quartos", "modifiedAt": "13/01/2025 08:05:37", "active": true}, "geometry": {"type": "Point", "coordinates": [-39.71900550000002, -5.1261877]}}, {"type": "Feature", "properties": {"id": 442, "title": "Kitnet 2 quartos ou 1 quarto", "price": "R$ 550", "address": "Rua Guassi, Pina, Recife", "url": "https://pe.olx.com.br/grande-recife/imoveis/kitnet-2-quartos-ou-1-quarto-1356039788", "property_type": "Apartamentos", "modifiedAt": "13/01/2025 08:05:37", "active": true}, "geometry": {"type": "Point", "coordinates": [-34.8946884, -8.0963033]}}, {"type": "Feature", "properties": {"id": 443, "title": "Apartamento em Jd São Paulo ", "price": "R$ 450", "address": "Rua Agostinho Barbalho, Jardim São Paulo, Recife", "url": "https://pe.olx.com.br/grande-recife/imoveis/apartamento-em-jd-sao-paulo-1355894487", "property_type": "Apartamentos", "modifiedAt": "13/01/2025 08:05:37", "active": true}, "geometry": {"type": "Point", "coordinates": [-46.61379790000001, -23.4910142]}}, {"type": "Feature", "properties": {"id": 444, "title": "Alugo apartamento no Iraque estância", "price": "R$ 400", "address": "Rua Mearim, Estância, Recife", "url": "https://pe.olx.com.br/grande-recife/imoveis/alugo-apartamento-no-iraque-estancia-1355859683", "property_type": "Apartamentos", "modifiedAt": "13/01/2025 08:05:37", "active": true}, "geometry": {"type": "Point", "coordinates": [-34.9276562, -8.0902314]}}, {"type": "Feature", "properties": {"id": 445, "title": "Apartamento térreo Guabiraba", "price": "R$ 900", "address": "Recife, Guabiraba", "url": "https://pe.olx.com.br/grande-recife/imoveis/apartamento-terreo-guabiraba-1355830986", "property_type": "Apartamentos", "modifiedAt": "13/01/2025 08:05:37", "active": true}, "geometry": {"type": "Point", "coordinates": [NaN, NaN]}}, {"type": "Feature", "properties": {"id": 446, "title": "kit no pina incluso água+luz apartir de 580,00", "price": "R$ 580", "address": "Rua Mineirolândia, San Martin, Recife", "url": "https://pe.olx.com.br/grande-recife/imoveis/kit-no-pina-incluso-agua-luz-apartir-de-580-00-1355783415", "property_type": "Apartamentos", "modifiedAt": "13/01/2025 08:05:37", "active": true}, "geometry": {"type": "Point", "coordinates": [-34.9271531, -8.0744121]}}, {"type": "Feature", "properties": {"id": 447, "title": "Acomodação AIRBNB Flat Mobiliado Recife Pernambuco atendimento 24 horas", "price": "R$ 299", "address": "Rua Jornalista Trajano Chacon, Ilha do Leite, Recife", "url": "https://pe.olx.com.br/grande-recife/imoveis/acomodacao-airbnb-flat-mobiliado-recife-pernambuco-atendimento-24-horas-781486003", "property_type": "Apartamentos", "modifiedAt": "13/01/2025 08:05:37", "active": true}, "geometry": {"type": "Point", "coordinates": [-34.8942264, -8.0642438]}}, {"type": "Feature", "properties": {"id": 448, "title": "Diarias Flat Beach Class Ilha do Leite Alugar", "price": "R$ 299", "address": "Rua Jornalista Trajano Chacon, Ilha do Leite, Recife", "url": "https://pe.olx.com.br/grande-recife/imoveis/diarias-flat-beach-class-ilha-do-leite-alugar-1239429492", "property_type": "Apartamentos", "modifiedAt": "13/01/2025 08:05:37", "active": true}, "geometry": {"type": "Point", "coordinates": [-34.8932264, -8.0642438]}}, {"type": "Feature", "properties": {"id": 449, "title": "Aluga-se ponto comercial em afogados ", "price": "R$ 700", "address": "Rua José Miranda, Afogados, Recife", "url": "https://pe.olx.com.br/grande-recife/imoveis/aluga-se-ponto-comercial-em-afogados-1355741442", "property_type": "Aluguel de quartos", "modifiedAt": "13/01/2025 08:05:37", "active": true}, "geometry": {"type": "Point", "coordinates": [-34.9103635, -8.0756381]}}, {"type": "Feature", "properties": {"id": 450, "title": "Apartamento no Barro com 2 quartos próximo ônibus e metrô", "price": "R$ 650", "address": "Rua Pongai, Barro, Recife", "url": "https://pe.olx.com.br/grande-recife/imoveis/apartamento-no-barro-com-2-quartos-proximo-onibus-e-metro-1355650515", "property_type": "Apartamentos", "modifiedAt": "13/01/2025 08:05:37", "active": true}, "geometry": {"type": "Point", "coordinates": [-38.77121360000001, -7.1713587]}}, {"type": "Feature", "properties": {"id": 451, "title": "Aluga-se kitnet no valor 450,00", "price": "R$ 450", "address": "Rua Radialista Amarílio Nicéas, Santo Amaro, Recife", "url": "https://pe.olx.com.br/grande-recife/imoveis/aluga-se-kitnet-no-valor-450-00-1355503334", "property_type": "Casas", "modifiedAt": "13/01/2025 08:05:37", "active": true}, "geometry": {"type": "Point", "coordinates": [-38.71126300000001, -12.54493]}}, {"type": "Feature", "properties": {"id": 452, "title": "PKitnet C/agua . para no  Máximo duas  pessoa:", "price": "R$ 450", "address": "Rua Artur Barreto Lins, Jardim São Paulo, Recife", "url": "https://pe.olx.com.br/grande-recife/imoveis/pkitnet-c-agua-para-no-maximo-duas-pessoa-1355495518", "property_type": "Apartamentos", "modifiedAt": "13/01/2025 08:05:37", "active": true}, "geometry": {"type": "Point", "coordinates": [-46.61279790000001, -23.4910142]}},